[
  {
    "upper": "Alabama",
    "lower": "Alabama",
    "href": "http:\/\/alabama.backpage.com\/",
    "res": {
      "latitude": 32.75041,
      "admin1_code": "AL",
      "longitude": -86.75026,
      "country_code": "US",
      "asciiname": "Alabama"
    }
  },
  {
    "upper": "Alabama",
    "lower": "Auburn",
    "href": "http:\/\/auburn.backpage.com\/",
    "res": {
      "latitude": 32.60986,
      "admin1_code": "AL",
      "longitude": -85.48078,
      "country_code": "US",
      "asciiname": "Auburn"
    }
  },
  {
    "upper": "Alabama",
    "lower": "Birmingham",
    "href": "http:\/\/birmingham.backpage.com\/",
    "res": {
      "latitude": 33.52066,
      "admin1_code": "AL",
      "longitude": -86.80249,
      "country_code": "US",
      "asciiname": "Birmingham"
    }
  },
  {
    "upper": "Alabama",
    "lower": "Dothan",
    "href": "http:\/\/dothan.backpage.com\/",
    "res": {
      "latitude": 31.22323,
      "admin1_code": "AL",
      "longitude": -85.39049,
      "country_code": "US",
      "asciiname": "Dothan"
    }
  },
  {
    "upper": "Alabama",
    "lower": "Gadsden",
    "href": "http:\/\/gadsden.backpage.com\/",
    "res": {
      "latitude": 34.01426,
      "admin1_code": "AL",
      "longitude": -86.00664,
      "country_code": "US",
      "asciiname": "Gadsden"
    }
  },
  {
    "upper": "Alabama",
    "lower": "Huntsville",
    "href": "http:\/\/huntsville.backpage.com\/",
    "res": {
      "latitude": 34.73037,
      "admin1_code": "AL",
      "longitude": -86.5861,
      "country_code": "US",
      "asciiname": "Huntsville"
    }
  },
  {
    "upper": "Alabama",
    "lower": "Mobile",
    "href": "http:\/\/mobile.backpage.com\/",
    "res": {
      "latitude": 30.69436,
      "admin1_code": "AL",
      "longitude": -88.04305,
      "country_code": "US",
      "asciiname": "Mobile"
    }
  },
  {
    "upper": "Alabama",
    "lower": "Montgomery",
    "href": "http:\/\/montgomery.backpage.com\/",
    "res": {
      "latitude": 32.36681,
      "admin1_code": "AL",
      "longitude": -86.29997,
      "country_code": "US",
      "asciiname": "Montgomery"
    }
  },
  {
    "upper": "Alabama",
    "lower": "Muscle Shoals",
    "href": "http:\/\/shoals.backpage.com\/",
    "res": {
      "latitude": 34.74481,
      "admin1_code": "AL",
      "longitude": -87.66753,
      "country_code": "US",
      "asciiname": "Muscle Shoals"
    }
  },
  {
    "upper": "Alabama",
    "lower": "Tuscaloosa",
    "href": "http:\/\/tuscaloosa.backpage.com\/",
    "res": {
      "latitude": 33.20984,
      "admin1_code": "AL",
      "longitude": -87.56917,
      "country_code": "US",
      "asciiname": "Tuscaloosa"
    }
  },
  {
    "upper": "Alaska",
    "lower": "Alaska",
    "href": "http:\/\/alaska.backpage.com\/",
    "res": {
      "latitude": 64.00028,
      "admin1_code": "AK",
      "longitude": -150.00028,
      "country_code": "US",
      "asciiname": "Alaska"
    }
  },
  {
    "upper": "Alaska",
    "lower": "Anchorage",
    "href": "http:\/\/anchorage.backpage.com\/",
    "res": {
      "latitude": 61.21806,
      "admin1_code": "AK",
      "longitude": -149.90028,
      "country_code": "US",
      "asciiname": "Anchorage"
    }
  },
  {
    "upper": "Alaska",
    "lower": "Fairbanks",
    "href": "http:\/\/fairbanks.backpage.com\/",
    "res": {
      "latitude": 64.83778,
      "admin1_code": "AK",
      "longitude": -147.71639,
      "country_code": "US",
      "asciiname": "Fairbanks"
    }
  },
  {
    "upper": "Alaska",
    "lower": "Juneau",
    "href": "http:\/\/juneau.backpage.com\/",
    "res": {
      "latitude": 58.30194,
      "admin1_code": "AK",
      "longitude": -134.41972,
      "country_code": "US",
      "asciiname": "Juneau"
    }
  },
  {
    "upper": "Alaska",
    "lower": "Kenai Peninsula",
    "href": "http:\/\/kenaipeninsula.backpage.com\/",
    "res": {
      "latitude": 60.55444,
      "admin1_code": "AK",
      "longitude": -151.25833,
      "country_code": "US",
      "asciiname": "Kenai"
    }
  },
  {
    "upper": "Arizona",
    "lower": "Arizona",
    "href": "http:\/\/arizona.backpage.com\/",
    "res": {
      "latitude": 34.5003,
      "admin1_code": "AZ",
      "longitude": -111.50098,
      "country_code": "US",
      "asciiname": "Arizona"
    }
  },
  {
    "upper": "Arizona",
    "lower": "Flagstaff Sedona",
    "href": "http:\/\/flagstaff.backpage.com\/",
    "res": {
      "latitude": 34.86974,
      "admin1_code": "AZ",
      "longitude": -111.76099,
      "country_code": "US",
      "asciiname": "Sedona"
    }
  },
  {
    "upper": "Arizona",
    "lower": "Mohave County",
    "href": "http:\/\/mohave.backpage.com\/",
    "res": {
      "latitude": 35.33333,
      "admin1_code": "AZ",
      "longitude": -114.58886,
      "country_code": "US",
      "asciiname": "Mohave Crossing"
    }
  },
  {
    "upper": "Arizona",
    "lower": "Phoenix",
    "href": "http:\/\/phoenix.backpage.com\/",
    "res": {
      "latitude": 33.44838,
      "admin1_code": "AZ",
      "longitude": -112.07404,
      "country_code": "US",
      "asciiname": "Phoenix"
    }
  },
  {
    "upper": "Arizona",
    "lower": "Prescott",
    "href": "http:\/\/prescott.backpage.com\/",
    "res": {
      "latitude": 34.54002,
      "admin1_code": "AZ",
      "longitude": -112.4685,
      "country_code": "US",
      "asciiname": "Prescott"
    }
  },
  {
    "upper": "Arizona",
    "lower": "Show Low",
    "href": "http:\/\/showlow.backpage.com\/",
    "res": {
      "latitude": 34.25421,
      "admin1_code": "AZ",
      "longitude": -110.02983,
      "country_code": "US",
      "asciiname": "Show Low"
    }
  },
  {
    "upper": "Arizona",
    "lower": "Sierra Vista",
    "href": "http:\/\/sierravista.backpage.com\/",
    "res": {
      "latitude": 31.55454,
      "admin1_code": "AZ",
      "longitude": -110.30369,
      "country_code": "US",
      "asciiname": "Sierra Vista"
    }
  },
  {
    "upper": "Arizona",
    "lower": "Tucson",
    "href": "http:\/\/tucson.backpage.com\/",
    "res": {
      "latitude": 32.22174,
      "admin1_code": "AZ",
      "longitude": -110.92648,
      "country_code": "US",
      "asciiname": "Tucson"
    }
  },
  {
    "upper": "Arizona",
    "lower": "Yuma",
    "href": "http:\/\/yuma.backpage.com\/",
    "res": {
      "latitude": 32.72532,
      "admin1_code": "AZ",
      "longitude": -114.6244,
      "country_code": "US",
      "asciiname": "Yuma"
    }
  },
  {
    "upper": "Arkansas",
    "lower": "Arkansas",
    "href": "http:\/\/arkansas.backpage.com\/",
    "res": {
      "latitude": 34.75037,
      "admin1_code": "AR",
      "longitude": -92.50044,
      "country_code": "US",
      "asciiname": "Arkansas"
    }
  },
  {
    "upper": "Arkansas",
    "lower": "Fayetteville",
    "href": "http:\/\/fayetteville.backpage.com\/",
    "res": {
      "latitude": 36.06258,
      "admin1_code": "AR",
      "longitude": -94.15743,
      "country_code": "US",
      "asciiname": "Fayetteville"
    }
  },
  {
    "upper": "Arkansas",
    "lower": "Fort Smith",
    "href": "http:\/\/fortsmith.backpage.com\/",
    "res": {
      "latitude": 35.38592,
      "admin1_code": "AR",
      "longitude": -94.39855,
      "country_code": "US",
      "asciiname": "Fort Smith"
    }
  },
  {
    "upper": "Arkansas",
    "lower": "Jonesboro",
    "href": "http:\/\/jonesboro.backpage.com\/",
    "res": {
      "latitude": 35.8423,
      "admin1_code": "AR",
      "longitude": -90.70428,
      "country_code": "US",
      "asciiname": "Jonesboro"
    }
  },
  {
    "upper": "Arkansas",
    "lower": "Little Rock",
    "href": "http:\/\/littlerock.backpage.com\/",
    "res": {
      "latitude": 34.74648,
      "admin1_code": "AR",
      "longitude": -92.28959,
      "country_code": "US",
      "asciiname": "Little Rock"
    }
  },
  {
    "upper": "California",
    "lower": "Bakersfield",
    "href": "http:\/\/bakersfield.backpage.com\/",
    "res": {
      "latitude": 35.37329,
      "admin1_code": "CA",
      "longitude": -119.01871,
      "country_code": "US",
      "asciiname": "Bakersfield"
    }
  },
  {
    "upper": "California",
    "lower": "Chico",
    "href": "http:\/\/chico.backpage.com\/",
    "res": {
      "latitude": 39.72849,
      "admin1_code": "CA",
      "longitude": -121.83748,
      "country_code": "US",
      "asciiname": "Chico"
    }
  },
  {
    "upper": "California",
    "lower": "Fresno",
    "href": "http:\/\/fresno.backpage.com\/",
    "res": {
      "latitude": 36.74773,
      "admin1_code": "CA",
      "longitude": -119.77237,
      "country_code": "US",
      "asciiname": "Fresno"
    }
  },
  {
    "upper": "California",
    "lower": "Humboldt County",
    "href": "http:\/\/humboldt.backpage.com\/",
    "res": {
      "latitude": 40.72596,
      "admin1_code": "CA",
      "longitude": -124.18978,
      "country_code": "US",
      "asciiname": "Humboldt Hill"
    }
  },
  {
    "upper": "California",
    "lower": "Imperial County",
    "href": "http:\/\/imperial.backpage.com\/",
    "res": {
      "latitude": 32.84755,
      "admin1_code": "CA",
      "longitude": -115.56944,
      "country_code": "US",
      "asciiname": "Imperial"
    }
  },
  {
    "upper": "California",
    "lower": "Inland Empire",
    "href": "http:\/\/inlandempire.backpage.com\/",
    "res": {
      "latitude": 37.63826,
      "admin1_code": "CA",
      "longitude": -120.90215,
      "country_code": "US",
      "asciiname": "Empire"
    }
  },
  {
    "upper": "California",
    "lower": "Long Beach",
    "href": "http:\/\/longbeach.backpage.com\/",
    "res": {
      "latitude": 33.76696,
      "admin1_code": "CA",
      "longitude": -118.18923,
      "country_code": "US",
      "asciiname": "Long Beach"
    }
  },
  {
    "upper": "California",
    "lower": "Los Angeles",
    "href": "http:\/\/losangeles.backpage.com\/",
    "res": {
      "latitude": 34.05223,
      "admin1_code": "CA",
      "longitude": -118.24368,
      "country_code": "US",
      "asciiname": "Los Angeles"
    }
  },
  {
    "upper": "California",
    "lower": "Mendocino",
    "href": "http:\/\/mendocino.backpage.com\/",
    "res": {
      "latitude": 39.30767,
      "admin1_code": "CA",
      "longitude": -123.79946,
      "country_code": "US",
      "asciiname": "Mendocino"
    }
  },
  {
    "upper": "California",
    "lower": "Merced",
    "href": "http:\/\/merced.backpage.com\/",
    "res": {
      "latitude": 37.30216,
      "admin1_code": "CA",
      "longitude": -120.48297,
      "country_code": "US",
      "asciiname": "Merced"
    }
  },
  {
    "upper": "California",
    "lower": "Modesto",
    "href": "http:\/\/modesto.backpage.com\/",
    "res": {
      "latitude": 37.6391,
      "admin1_code": "CA",
      "longitude": -120.99688,
      "country_code": "US",
      "asciiname": "Modesto"
    }
  },
  {
    "upper": "California",
    "lower": "Monterey",
    "href": "http:\/\/monterey.backpage.com\/",
    "res": {
      "latitude": 36.60024,
      "admin1_code": "CA",
      "longitude": -121.89468,
      "country_code": "US",
      "asciiname": "Monterey"
    }
  },
  {
    "upper": "California",
    "lower": "North Bay",
    "href": "http:\/\/northbay.backpage.com\/",
    "res": {
      "latitude": 32.69922,
      "admin1_code": "CA",
      "longitude": -117.04475,
      "country_code": "US",
      "asciiname": "North Bay Terraces"
    }
  },
  {
    "upper": "California",
    "lower": "Oakland East Bay",
    "href": "http:\/\/eastbay.backpage.com\/",
    "res": {
      "latitude": 37.80437,
      "admin1_code": "CA",
      "longitude": -122.2708,
      "country_code": "US",
      "asciiname": "Oakland"
    }
  },
  {
    "upper": "California",
    "lower": "Orange County",
    "href": "http:\/\/orangecounty.backpage.com\/",
    "res": {
      "latitude": 33.78779,
      "admin1_code": "CA",
      "longitude": -117.85311,
      "country_code": "US",
      "asciiname": "Orange"
    }
  },
  {
    "upper": "California",
    "lower": "Palm Springs",
    "href": "http:\/\/palmsprings.backpage.com\/",
    "res": {
      "latitude": 33.8303,
      "admin1_code": "CA",
      "longitude": -116.54529,
      "country_code": "US",
      "asciiname": "Palm Springs"
    }
  },
  {
    "upper": "California",
    "lower": "Palmdale lancaster",
    "href": "http:\/\/palmdale.backpage.com\/",
    "res": {
      "latitude": 34.57943,
      "admin1_code": "CA",
      "longitude": -118.11646,
      "country_code": "US",
      "asciiname": "Palmdale"
    }
  },
  {
    "upper": "California",
    "lower": "Redding",
    "href": "http:\/\/redding.backpage.com\/",
    "res": {
      "latitude": 40.58654,
      "admin1_code": "CA",
      "longitude": -122.39168,
      "country_code": "US",
      "asciiname": "Redding"
    }
  },
  {
    "upper": "California",
    "lower": "Sacramento",
    "href": "http:\/\/sacramento.backpage.com\/",
    "res": {
      "latitude": 38.58157,
      "admin1_code": "CA",
      "longitude": -121.4944,
      "country_code": "US",
      "asciiname": "Sacramento"
    }
  },
  {
    "upper": "California",
    "lower": "San Diego",
    "href": "http:\/\/sandiego.backpage.com\/",
    "res": {
      "latitude": 32.71533,
      "admin1_code": "CA",
      "longitude": -117.15726,
      "country_code": "US",
      "asciiname": "San Diego"
    }
  },
  {
    "upper": "California",
    "lower": "San Fernando Valley",
    "href": "http:\/\/sanfernandovalley.backpage.com\/",
    "res": {
      "latitude": 34.28195,
      "admin1_code": "CA",
      "longitude": -118.43897,
      "country_code": "US",
      "asciiname": "San Fernando"
    }
  },
  {
    "upper": "California",
    "lower": "San Francisco",
    "href": "http:\/\/sf.backpage.com\/",
    "res": {
      "latitude": 37.77493,
      "admin1_code": "CA",
      "longitude": -122.41942,
      "country_code": "US",
      "asciiname": "San Francisco"
    }
  },
  {
    "upper": "California",
    "lower": "San Gabriel Valley",
    "href": "http:\/\/sangabrielvalley.backpage.com\/",
    "res": {
      "latitude": 34.09611,
      "admin1_code": "CA",
      "longitude": -118.10583,
      "country_code": "US",
      "asciiname": "San Gabriel"
    }
  },
  {
    "upper": "California",
    "lower": "San Jose",
    "href": "http:\/\/sanjose.backpage.com\/",
    "res": {
      "latitude": 37.33939,
      "admin1_code": "CA",
      "longitude": -121.89496,
      "country_code": "US",
      "asciiname": "San Jose"
    }
  },
  {
    "upper": "California",
    "lower": "San Luis Obispo",
    "href": "http:\/\/sanluisobispo.backpage.com\/",
    "res": {
      "latitude": 35.28275,
      "admin1_code": "CA",
      "longitude": -120.65962,
      "country_code": "US",
      "asciiname": "San Luis Obispo"
    }
  },
  {
    "upper": "California",
    "lower": "San Mateo",
    "href": "http:\/\/sanmateo.backpage.com\/",
    "res": {
      "latitude": 37.56299,
      "admin1_code": "CA",
      "longitude": -122.32553,
      "country_code": "US",
      "asciiname": "San Mateo"
    }
  },
  {
    "upper": "California",
    "lower": "Santa Barbara",
    "href": "http:\/\/santabarbara.backpage.com\/",
    "res": {
      "latitude": 34.42083,
      "admin1_code": "CA",
      "longitude": -119.69819,
      "country_code": "US",
      "asciiname": "Santa Barbara"
    }
  },
  {
    "upper": "California",
    "lower": "Santa Cruz",
    "href": "http:\/\/santacruz.backpage.com\/",
    "res": {
      "latitude": 36.97412,
      "admin1_code": "CA",
      "longitude": -122.0308,
      "country_code": "US",
      "asciiname": "Santa Cruz"
    }
  },
  {
    "upper": "California",
    "lower": "Santa Maria",
    "href": "http:\/\/santamaria.backpage.com\/",
    "res": {
      "latitude": 34.1314,
      "admin1_code": "CA",
      "longitude": -118.57453,
      "country_code": "US",
      "asciiname": "Santa Maria"
    }
  },
  {
    "upper": "California",
    "lower": "Siskiyou",
    "href": "http:\/\/siskiyou.backpage.com\/",
    "res": null
  },
  {
    "upper": "California",
    "lower": "Stockton",
    "href": "http:\/\/stockton.backpage.com\/",
    "res": {
      "latitude": 32.71338,
      "admin1_code": "CA",
      "longitude": -117.12309,
      "country_code": "US",
      "asciiname": "Stockton"
    }
  },
  {
    "upper": "California",
    "lower": "Susanville",
    "href": "http:\/\/susanville.backpage.com\/",
    "res": {
      "latitude": 40.41628,
      "admin1_code": "CA",
      "longitude": -120.65301,
      "country_code": "US",
      "asciiname": "Susanville"
    }
  },
  {
    "upper": "California",
    "lower": "Ventura",
    "href": "http:\/\/ventura.backpage.com\/",
    "res": {
      "latitude": 34.27834,
      "admin1_code": "CA",
      "longitude": -119.29317,
      "country_code": "US",
      "asciiname": "Ventura"
    }
  },
  {
    "upper": "California",
    "lower": "Visalia",
    "href": "http:\/\/visalia.backpage.com\/",
    "res": {
      "latitude": 36.33023,
      "admin1_code": "CA",
      "longitude": -119.29206,
      "country_code": "US",
      "asciiname": "Visalia"
    }
  },
  {
    "upper": "Colorado",
    "lower": "Colorado",
    "href": "http:\/\/colorado.backpage.com\/",
    "res": {
      "latitude": 39.00027,
      "admin1_code": "CO",
      "longitude": -105.50083,
      "country_code": "US",
      "asciiname": "Colorado"
    }
  },
  {
    "upper": "Colorado",
    "lower": "Boulder",
    "href": "http:\/\/boulder.backpage.com\/",
    "res": {
      "latitude": 40.01499,
      "admin1_code": "CO",
      "longitude": -105.27055,
      "country_code": "US",
      "asciiname": "Boulder"
    }
  },
  {
    "upper": "Colorado",
    "lower": "Colorado Springs",
    "href": "http:\/\/coloradosprings.backpage.com\/",
    "res": {
      "latitude": 38.83388,
      "admin1_code": "CO",
      "longitude": -104.82136,
      "country_code": "US",
      "asciiname": "Colorado Springs"
    }
  },
  {
    "upper": "Colorado",
    "lower": "Denver",
    "href": "http:\/\/denver.backpage.com\/",
    "res": {
      "latitude": 39.73915,
      "admin1_code": "CO",
      "longitude": -104.9847,
      "country_code": "US",
      "asciiname": "Denver"
    }
  },
  {
    "upper": "Colorado",
    "lower": "Fort Collins",
    "href": "http:\/\/fortcollins.backpage.com\/",
    "res": {
      "latitude": 40.58526,
      "admin1_code": "CO",
      "longitude": -105.08442,
      "country_code": "US",
      "asciiname": "Fort Collins"
    }
  },
  {
    "upper": "Colorado",
    "lower": "Pueblo",
    "href": "http:\/\/pueblo.backpage.com\/",
    "res": {
      "latitude": 38.25445,
      "admin1_code": "CO",
      "longitude": -104.60914,
      "country_code": "US",
      "asciiname": "Pueblo"
    }
  },
  {
    "upper": "Colorado",
    "lower": "Rockies",
    "href": "http:\/\/rockies.backpage.com\/",
    "res": null
  },
  {
    "upper": "Colorado",
    "lower": "Western Slope",
    "href": "http:\/\/westslope.backpage.com\/",
    "res": {
      "latitude": 39.79333,
      "admin1_code": "CO",
      "longitude": -105.09083,
      "country_code": "US",
      "asciiname": "Park Slope"
    }
  },
  {
    "upper": "Connecticut",
    "lower": "Connecticut",
    "href": "http:\/\/connecticut.backpage.com\/",
    "res": {
      "latitude": 41.66704,
      "admin1_code": "CT",
      "longitude": -72.66648,
      "country_code": "US",
      "asciiname": "Connecticut"
    }
  },
  {
    "upper": "Connecticut",
    "lower": "Eastern Connecticut",
    "href": "http:\/\/newlondon.backpage.com\/",
    "res": null
  },
  {
    "upper": "Connecticut",
    "lower": "Hartford",
    "href": "http:\/\/hartford.backpage.com\/",
    "res": {
      "latitude": 41.76371,
      "admin1_code": "CT",
      "longitude": -72.68509,
      "country_code": "US",
      "asciiname": "Hartford"
    }
  },
  {
    "upper": "Connecticut",
    "lower": "New Haven",
    "href": "http:\/\/newhaven.backpage.com\/",
    "res": {
      "latitude": 41.30815,
      "admin1_code": "CT",
      "longitude": -72.92816,
      "country_code": "US",
      "asciiname": "New Haven"
    }
  },
  {
    "upper": "Connecticut",
    "lower": "Northwest Connecticut",
    "href": "http:\/\/nwct.backpage.com\/",
    "res": {
      "latitude": 41.77685,
      "admin1_code": "CT",
      "longitude": -73.07922,
      "country_code": "US",
      "asciiname": "Northwest Harwinton"
    }
  },
  {
    "upper": "Delaware ",
    "lower": "Delaware",
    "href": "http:\/\/delaware.backpage.com\/",
    "res": {
      "latitude": 39.00039,
      "admin1_code": "DE",
      "longitude": -75.49992,
      "country_code": "US",
      "asciiname": "Delaware"
    }
  },
  {
    "upper": "District of Columbia",
    "lower": "District of Columbia",
    "href": "http:\/\/washingtondc.backpage.com\/",
    "res": {
      "latitude": 38.91706,
      "admin1_code": "DC",
      "longitude": -77.00025,
      "country_code": "US",
      "asciiname": "District of Columbia"
    }
  },
  {
    "upper": "District of Columbia",
    "lower": "Northern Virginia",
    "href": "http:\/\/nova.backpage.com\/",
    "res": null
  },
  {
    "upper": "District of Columbia",
    "lower": "Southern Maryland",
    "href": "http:\/\/southernmaryland.backpage.com\/",
    "res": null
  },
  {
    "upper": "District of Columbia",
    "lower": "Washington D C ",
    "href": "http:\/\/dc.backpage.com\/",
    "res": {
      "latitude": 38.90011,
      "admin1_code": "DC",
      "longitude": -77.01637,
      "country_code": "US",
      "asciiname": "Washington City"
    }
  },
  {
    "upper": "Florida",
    "lower": "Daytona",
    "href": "http:\/\/daytona.backpage.com\/",
    "res": {
      "latitude": 29.21081,
      "admin1_code": "FL",
      "longitude": -81.02283,
      "country_code": "US",
      "asciiname": "Daytona Beach"
    }
  },
  {
    "upper": "Florida",
    "lower": "Fort Lauderdale",
    "href": "http:\/\/ftlauderdale.backpage.com\/",
    "res": {
      "latitude": 26.12231,
      "admin1_code": "FL",
      "longitude": -80.14338,
      "country_code": "US",
      "asciiname": "Fort Lauderdale"
    }
  },
  {
    "upper": "Florida",
    "lower": "Fort Myers",
    "href": "http:\/\/fortmyers.backpage.com\/",
    "res": {
      "latitude": 26.62168,
      "admin1_code": "FL",
      "longitude": -81.84059,
      "country_code": "US",
      "asciiname": "Fort Myers"
    }
  },
  {
    "upper": "Florida",
    "lower": "Gainesville",
    "href": "http:\/\/gainesville.backpage.com\/",
    "res": {
      "latitude": 29.65163,
      "admin1_code": "FL",
      "longitude": -82.32483,
      "country_code": "US",
      "asciiname": "Gainesville"
    }
  },
  {
    "upper": "Florida",
    "lower": "Jacksonville",
    "href": "http:\/\/jacksonville.backpage.com\/",
    "res": {
      "latitude": 30.33218,
      "admin1_code": "FL",
      "longitude": -81.65565,
      "country_code": "US",
      "asciiname": "Jacksonville"
    }
  },
  {
    "upper": "Florida",
    "lower": "Keys",
    "href": "http:\/\/keys.backpage.com\/",
    "res": {
      "latitude": 27.9658,
      "admin1_code": "FL",
      "longitude": -82.4559,
      "country_code": "US",
      "asciiname": "Keys"
    }
  },
  {
    "upper": "Florida",
    "lower": "Lakeland",
    "href": "http:\/\/lakeland.backpage.com\/",
    "res": {
      "latitude": 28.03947,
      "admin1_code": "FL",
      "longitude": -81.9498,
      "country_code": "US",
      "asciiname": "Lakeland"
    }
  },
  {
    "upper": "Florida",
    "lower": "Miami",
    "href": "http:\/\/miami.backpage.com\/",
    "res": {
      "latitude": 25.77427,
      "admin1_code": "FL",
      "longitude": -80.19366,
      "country_code": "US",
      "asciiname": "Miami"
    }
  },
  {
    "upper": "Florida",
    "lower": "Ocala",
    "href": "http:\/\/ocala.backpage.com\/",
    "res": {
      "latitude": 29.1872,
      "admin1_code": "FL",
      "longitude": -82.14009,
      "country_code": "US",
      "asciiname": "Ocala"
    }
  },
  {
    "upper": "Florida",
    "lower": "Okaloosa",
    "href": "http:\/\/okaloosa.backpage.com\/",
    "res": null
  },
  {
    "upper": "Florida",
    "lower": "Orlando",
    "href": "http:\/\/orlando.backpage.com\/",
    "res": {
      "latitude": 28.53834,
      "admin1_code": "FL",
      "longitude": -81.37924,
      "country_code": "US",
      "asciiname": "Orlando"
    }
  },
  {
    "upper": "Florida",
    "lower": "Panama City",
    "href": "http:\/\/panamacity.backpage.com\/",
    "res": {
      "latitude": 30.15946,
      "admin1_code": "FL",
      "longitude": -85.65983,
      "country_code": "US",
      "asciiname": "Panama City"
    }
  },
  {
    "upper": "Florida",
    "lower": "Pensacola",
    "href": "http:\/\/pensacola.backpage.com\/",
    "res": {
      "latitude": 30.42131,
      "admin1_code": "FL",
      "longitude": -87.21691,
      "country_code": "US",
      "asciiname": "Pensacola"
    }
  },
  {
    "upper": "Florida",
    "lower": "Sarasota Bradenton",
    "href": "http:\/\/sarasota.backpage.com\/",
    "res": {
      "latitude": 27.49893,
      "admin1_code": "FL",
      "longitude": -82.57482,
      "country_code": "US",
      "asciiname": "Bradenton"
    }
  },
  {
    "upper": "Florida",
    "lower": "Space Coast",
    "href": "http:\/\/spacecoast.backpage.com\/",
    "res": {
      "latitude": 27.9825,
      "admin1_code": "FL",
      "longitude": -82.3452,
      "country_code": "US",
      "asciiname": "Gold Coast"
    }
  },
  {
    "upper": "Florida",
    "lower": "St Augustine",
    "href": "http:\/\/staugustine.backpage.com\/",
    "res": {
      "latitude": 29.89469,
      "admin1_code": "FL",
      "longitude": -81.31452,
      "country_code": "US",
      "asciiname": "Saint Augustine"
    }
  },
  {
    "upper": "Florida",
    "lower": "Tallahassee",
    "href": "http:\/\/tallahassee.backpage.com\/",
    "res": {
      "latitude": 30.43826,
      "admin1_code": "FL",
      "longitude": -84.28073,
      "country_code": "US",
      "asciiname": "Tallahassee"
    }
  },
  {
    "upper": "Florida",
    "lower": "Tampa",
    "href": "http:\/\/tampa.backpage.com\/",
    "res": {
      "latitude": 27.94752,
      "admin1_code": "FL",
      "longitude": -82.45843,
      "country_code": "US",
      "asciiname": "Tampa"
    }
  },
  {
    "upper": "Florida",
    "lower": "Treasure Coast",
    "href": "http:\/\/treasurecoast.backpage.com\/",
    "res": {
      "latitude": 27.8773,
      "admin1_code": "FL",
      "longitude": -82.5085,
      "country_code": "US",
      "asciiname": "Treasure Park"
    }
  },
  {
    "upper": "Florida",
    "lower": "West Palm Beach",
    "href": "http:\/\/westpalmbeach.backpage.com\/",
    "res": {
      "latitude": 26.71534,
      "admin1_code": "FL",
      "longitude": -80.05337,
      "country_code": "US",
      "asciiname": "West Palm Beach"
    }
  },
  {
    "upper": "Georgia",
    "lower": "Georgia",
    "href": "http:\/\/georgia.backpage.com\/",
    "res": {
      "latitude": 32.75042,
      "admin1_code": "GA",
      "longitude": -83.50018,
      "country_code": "US",
      "asciiname": "Georgia"
    }
  },
  {
    "upper": "Georgia",
    "lower": "Albany",
    "href": "http:\/\/albanyga.backpage.com\/",
    "res": {
      "latitude": 31.57851,
      "admin1_code": "GA",
      "longitude": -84.15574,
      "country_code": "US",
      "asciiname": "Albany"
    }
  },
  {
    "upper": "Georgia",
    "lower": "Athens",
    "href": "http:\/\/athensga.backpage.com\/",
    "res": {
      "latitude": 33.96095,
      "admin1_code": "GA",
      "longitude": -83.37794,
      "country_code": "US",
      "asciiname": "Athens"
    }
  },
  {
    "upper": "Georgia",
    "lower": "Atlanta",
    "href": "http:\/\/atlanta.backpage.com\/",
    "res": {
      "latitude": 33.749,
      "admin1_code": "GA",
      "longitude": -84.38798,
      "country_code": "US",
      "asciiname": "Atlanta"
    }
  },
  {
    "upper": "Georgia",
    "lower": "Augusta",
    "href": "http:\/\/augusta.backpage.com\/",
    "res": {
      "latitude": 33.47097,
      "admin1_code": "GA",
      "longitude": -81.97484,
      "country_code": "US",
      "asciiname": "Augusta"
    }
  },
  {
    "upper": "Georgia",
    "lower": "Brunswick",
    "href": "http:\/\/brunswick.backpage.com\/",
    "res": {
      "latitude": 31.14995,
      "admin1_code": "GA",
      "longitude": -81.49149,
      "country_code": "US",
      "asciiname": "Brunswick"
    }
  },
  {
    "upper": "Georgia",
    "lower": "Columbus",
    "href": "http:\/\/columbusga.backpage.com\/",
    "res": {
      "latitude": 32.46098,
      "admin1_code": "GA",
      "longitude": -84.98771,
      "country_code": "US",
      "asciiname": "Columbus"
    }
  },
  {
    "upper": "Georgia",
    "lower": "Macon",
    "href": "http:\/\/macon.backpage.com\/",
    "res": {
      "latitude": 32.84069,
      "admin1_code": "GA",
      "longitude": -83.6324,
      "country_code": "US",
      "asciiname": "Macon"
    }
  },
  {
    "upper": "Georgia",
    "lower": "Northwest Georgia",
    "href": "http:\/\/nwga.backpage.com\/",
    "res": {
      "latitude": 33.80899,
      "admin1_code": "GA",
      "longitude": -84.88994,
      "country_code": "US",
      "asciiname": "New Georgia"
    }
  },
  {
    "upper": "Georgia",
    "lower": "Savannah",
    "href": "http:\/\/savannah.backpage.com\/",
    "res": {
      "latitude": 32.08354,
      "admin1_code": "GA",
      "longitude": -81.09983,
      "country_code": "US",
      "asciiname": "Savannah"
    }
  },
  {
    "upper": "Georgia",
    "lower": "Statesboro",
    "href": "http:\/\/statesboro.backpage.com\/",
    "res": {
      "latitude": 32.44879,
      "admin1_code": "GA",
      "longitude": -81.78317,
      "country_code": "US",
      "asciiname": "Statesboro"
    }
  },
  {
    "upper": "Georgia",
    "lower": "Valdosta",
    "href": "http:\/\/valdosta.backpage.com\/",
    "res": {
      "latitude": 30.8327,
      "admin1_code": "GA",
      "longitude": -83.27849,
      "country_code": "US",
      "asciiname": "Valdosta"
    }
  },
  {
    "upper": "Hawaii",
    "lower": "Hawaii",
    "href": "http:\/\/hawaii.backpage.com\/",
    "res": {
      "latitude": 20.75028,
      "admin1_code": "HI",
      "longitude": -156.50028,
      "country_code": "US",
      "asciiname": "Hawaii"
    }
  },
  {
    "upper": "Hawaii",
    "lower": "Big Island",
    "href": "http:\/\/bigisland.backpage.com\/",
    "res": {
      "latitude": 21.33333,
      "admin1_code": "HI",
      "longitude": -157.90056,
      "country_code": "US",
      "asciiname": "Mokumoa Island (historical)"
    }
  },
  {
    "upper": "Hawaii",
    "lower": "Honolulu",
    "href": "http:\/\/honolulu.backpage.com\/",
    "res": {
      "latitude": 21.30694,
      "admin1_code": "HI",
      "longitude": -157.85833,
      "country_code": "US",
      "asciiname": "Honolulu"
    }
  },
  {
    "upper": "Hawaii",
    "lower": "Kauai",
    "href": "http:\/\/kauai.backpage.com\/",
    "res": null
  },
  {
    "upper": "Hawaii",
    "lower": "Maui",
    "href": "http:\/\/maui.backpage.com\/",
    "res": {
      "latitude": 20.69871,
      "admin1_code": "HI",
      "longitude": -156.42664,
      "country_code": "US",
      "asciiname": "Maui Meadows"
    }
  },
  {
    "upper": "Idaho",
    "lower": "Idaho",
    "href": "http:\/\/idaho.backpage.com\/",
    "res": {
      "latitude": 44.5002,
      "admin1_code": "ID",
      "longitude": -114.25118,
      "country_code": "US",
      "asciiname": "Idaho"
    }
  },
  {
    "upper": "Idaho",
    "lower": "Boise",
    "href": "http:\/\/boise.backpage.com\/",
    "res": {
      "latitude": 43.6135,
      "admin1_code": "ID",
      "longitude": -116.20345,
      "country_code": "US",
      "asciiname": "Boise"
    }
  },
  {
    "upper": "Idaho",
    "lower": "East Idaho",
    "href": "http:\/\/eastidaho.backpage.com\/",
    "res": {
      "latitude": 45.90378,
      "admin1_code": "ID",
      "longitude": -116.08209,
      "country_code": "US",
      "asciiname": "Mount Idaho"
    }
  },
  {
    "upper": "Idaho",
    "lower": "Lewiston",
    "href": "http:\/\/lewiston.backpage.com\/",
    "res": {
      "latitude": 46.41655,
      "admin1_code": "ID",
      "longitude": -117.01766,
      "country_code": "US",
      "asciiname": "Lewiston"
    }
  },
  {
    "upper": "Idaho",
    "lower": "Twin Falls",
    "href": "http:\/\/twinfalls.backpage.com\/",
    "res": {
      "latitude": 42.56297,
      "admin1_code": "ID",
      "longitude": -114.46087,
      "country_code": "US",
      "asciiname": "Twin Falls"
    }
  },
  {
    "upper": "Illinois",
    "lower": "Illinois",
    "href": "http:\/\/illinois.backpage.com\/",
    "res": {
      "latitude": 40.00032,
      "admin1_code": "IL",
      "longitude": -89.25037,
      "country_code": "US",
      "asciiname": "Illinois"
    }
  },
  {
    "upper": "Illinois",
    "lower": "Bloomington",
    "href": "http:\/\/bloomington.backpage.com\/",
    "res": {
      "latitude": 40.4842,
      "admin1_code": "IL",
      "longitude": -88.99369,
      "country_code": "US",
      "asciiname": "Bloomington"
    }
  },
  {
    "upper": "Illinois",
    "lower": "Carbondale",
    "href": "http:\/\/carbondale.backpage.com\/",
    "res": {
      "latitude": 37.72727,
      "admin1_code": "IL",
      "longitude": -89.21675,
      "country_code": "US",
      "asciiname": "Carbondale"
    }
  },
  {
    "upper": "Illinois",
    "lower": "Chambana",
    "href": "http:\/\/chambana.backpage.com\/",
    "res": null
  },
  {
    "upper": "Illinois",
    "lower": "Chicago",
    "href": "http:\/\/chicago.backpage.com\/",
    "res": {
      "latitude": 41.85003,
      "admin1_code": "IL",
      "longitude": -87.65005,
      "country_code": "US",
      "asciiname": "Chicago"
    }
  },
  {
    "upper": "Illinois",
    "lower": "Decatur",
    "href": "http:\/\/decatur.backpage.com\/",
    "res": {
      "latitude": 39.84031,
      "admin1_code": "IL",
      "longitude": -88.9548,
      "country_code": "US",
      "asciiname": "Decatur"
    }
  },
  {
    "upper": "Illinois",
    "lower": "La Salle County",
    "href": "http:\/\/lasalle.backpage.com\/",
    "res": {
      "latitude": 41.33337,
      "admin1_code": "IL",
      "longitude": -89.09175,
      "country_code": "US",
      "asciiname": "La Salle"
    }
  },
  {
    "upper": "Illinois",
    "lower": "Mattoon",
    "href": "http:\/\/mattoon.backpage.com\/",
    "res": {
      "latitude": 39.48309,
      "admin1_code": "IL",
      "longitude": -88.37283,
      "country_code": "US",
      "asciiname": "Mattoon"
    }
  },
  {
    "upper": "Illinois",
    "lower": "Peoria",
    "href": "http:\/\/peoria.backpage.com\/",
    "res": {
      "latitude": 40.69365,
      "admin1_code": "IL",
      "longitude": -89.58899,
      "country_code": "US",
      "asciiname": "Peoria"
    }
  },
  {
    "upper": "Illinois",
    "lower": "Rockford",
    "href": "http:\/\/rockford.backpage.com\/",
    "res": {
      "latitude": 42.27113,
      "admin1_code": "IL",
      "longitude": -89.094,
      "country_code": "US",
      "asciiname": "Rockford"
    }
  },
  {
    "upper": "Illinois",
    "lower": "Springfield",
    "href": "http:\/\/springfieldil.backpage.com\/",
    "res": {
      "latitude": 39.80172,
      "admin1_code": "IL",
      "longitude": -89.64371,
      "country_code": "US",
      "asciiname": "Springfield"
    }
  },
  {
    "upper": "Illinois",
    "lower": "Western Illinois",
    "href": "http:\/\/quincy.backpage.com\/",
    "res": {
      "latitude": 41.39753,
      "admin1_code": "IL",
      "longitude": -90.89959,
      "country_code": "US",
      "asciiname": "Illinois City"
    }
  },
  {
    "upper": "Indiana",
    "lower": "Indiana",
    "href": "http:\/\/indiana.backpage.com\/",
    "res": {
      "latitude": 40.00032,
      "admin1_code": "IN",
      "longitude": -86.25027,
      "country_code": "US",
      "asciiname": "Indiana"
    }
  },
  {
    "upper": "Indiana",
    "lower": "Bloomington",
    "href": "http:\/\/bloomingtonin.backpage.com\/",
    "res": {
      "latitude": 39.16532,
      "admin1_code": "IN",
      "longitude": -86.52639,
      "country_code": "US",
      "asciiname": "Bloomington"
    }
  },
  {
    "upper": "Indiana",
    "lower": "Evansville",
    "href": "http:\/\/evansville.backpage.com\/",
    "res": {
      "latitude": 37.97476,
      "admin1_code": "IN",
      "longitude": -87.55585,
      "country_code": "US",
      "asciiname": "Evansville"
    }
  },
  {
    "upper": "Indiana",
    "lower": "Ft Wayne",
    "href": "http:\/\/fortwayne.backpage.com\/",
    "res": {
      "latitude": 39.88783,
      "admin1_code": "IN",
      "longitude": -84.92552,
      "country_code": "US",
      "asciiname": "Wayne"
    }
  },
  {
    "upper": "Indiana",
    "lower": "Indianapolis",
    "href": "http:\/\/indianapolis.backpage.com\/",
    "res": {
      "latitude": 39.76838,
      "admin1_code": "IN",
      "longitude": -86.15804,
      "country_code": "US",
      "asciiname": "Indianapolis"
    }
  },
  {
    "upper": "Indiana",
    "lower": "Kokomo",
    "href": "http:\/\/kokomo.backpage.com\/",
    "res": {
      "latitude": 40.48643,
      "admin1_code": "IN",
      "longitude": -86.1336,
      "country_code": "US",
      "asciiname": "Kokomo"
    }
  },
  {
    "upper": "Indiana",
    "lower": "Lafayette",
    "href": "http:\/\/tippecanoe.backpage.com\/",
    "res": {
      "latitude": 40.4167,
      "admin1_code": "IN",
      "longitude": -86.87529,
      "country_code": "US",
      "asciiname": "Lafayette"
    }
  },
  {
    "upper": "Indiana",
    "lower": "Muncie",
    "href": "http:\/\/muncie.backpage.com\/",
    "res": {
      "latitude": 40.19338,
      "admin1_code": "IN",
      "longitude": -85.38636,
      "country_code": "US",
      "asciiname": "Muncie"
    }
  },
  {
    "upper": "Indiana",
    "lower": "Richmond",
    "href": "http:\/\/richmondin.backpage.com\/",
    "res": {
      "latitude": 39.82894,
      "admin1_code": "IN",
      "longitude": -84.89024,
      "country_code": "US",
      "asciiname": "Richmond"
    }
  },
  {
    "upper": "Indiana",
    "lower": "South Bend",
    "href": "http:\/\/southbend.backpage.com\/",
    "res": {
      "latitude": 41.68338,
      "admin1_code": "IN",
      "longitude": -86.25001,
      "country_code": "US",
      "asciiname": "South Bend"
    }
  },
  {
    "upper": "Indiana",
    "lower": "Terre Haute",
    "href": "http:\/\/terrehaute.backpage.com\/",
    "res": {
      "latitude": 39.4667,
      "admin1_code": "IN",
      "longitude": -87.41391,
      "country_code": "US",
      "asciiname": "Terre Haute"
    }
  },
  {
    "upper": "Iowa",
    "lower": "Iowa",
    "href": "http:\/\/iowa.backpage.com\/",
    "res": {
      "latitude": 42.00027,
      "admin1_code": "IA",
      "longitude": -93.50049,
      "country_code": "US",
      "asciiname": "Iowa"
    }
  },
  {
    "upper": "Iowa",
    "lower": "Ames",
    "href": "http:\/\/ames.backpage.com\/",
    "res": {
      "latitude": 42.03471,
      "admin1_code": "IA",
      "longitude": -93.61994,
      "country_code": "US",
      "asciiname": "Ames"
    }
  },
  {
    "upper": "Iowa",
    "lower": "Cedar Rapids",
    "href": "http:\/\/cedarrapids.backpage.com\/",
    "res": {
      "latitude": 42.00833,
      "admin1_code": "IA",
      "longitude": -91.64407,
      "country_code": "US",
      "asciiname": "Cedar Rapids"
    }
  },
  {
    "upper": "Iowa",
    "lower": "Desmoines",
    "href": "http:\/\/desmoines.backpage.com\/",
    "res": null
  },
  {
    "upper": "Iowa",
    "lower": "Dubuque",
    "href": "http:\/\/dubuque.backpage.com\/",
    "res": {
      "latitude": 42.50056,
      "admin1_code": "IA",
      "longitude": -90.66457,
      "country_code": "US",
      "asciiname": "Dubuque"
    }
  },
  {
    "upper": "Iowa",
    "lower": "Fort Dodge",
    "href": "http:\/\/fortdodge.backpage.com\/",
    "res": {
      "latitude": 42.49747,
      "admin1_code": "IA",
      "longitude": -94.16802,
      "country_code": "US",
      "asciiname": "Fort Dodge"
    }
  },
  {
    "upper": "Iowa",
    "lower": "Iowa City",
    "href": "http:\/\/iowacity.backpage.com\/",
    "res": {
      "latitude": 41.66113,
      "admin1_code": "IA",
      "longitude": -91.53017,
      "country_code": "US",
      "asciiname": "Iowa City"
    }
  },
  {
    "upper": "Iowa",
    "lower": "Mason City",
    "href": "http:\/\/masoncity.backpage.com\/",
    "res": {
      "latitude": 43.15357,
      "admin1_code": "IA",
      "longitude": -93.20104,
      "country_code": "US",
      "asciiname": "Mason City"
    }
  },
  {
    "upper": "Iowa",
    "lower": "Quad Cities",
    "href": "http:\/\/quadcities.backpage.com\/",
    "res": null
  },
  {
    "upper": "Iowa",
    "lower": "Sioux City",
    "href": "http:\/\/siouxcity.backpage.com\/",
    "res": {
      "latitude": 42.49999,
      "admin1_code": "IA",
      "longitude": -96.40031,
      "country_code": "US",
      "asciiname": "Sioux City"
    }
  },
  {
    "upper": "Iowa",
    "lower": "Southest Iowa",
    "href": "http:\/\/ottumwa.backpage.com\/",
    "res": {
      "latitude": 41.9286,
      "admin1_code": "IA",
      "longitude": -93.40521,
      "country_code": "US",
      "asciiname": "Iowa Center"
    }
  },
  {
    "upper": "Iowa",
    "lower": "Waterloo",
    "href": "http:\/\/waterloo.backpage.com\/",
    "res": {
      "latitude": 42.49276,
      "admin1_code": "IA",
      "longitude": -92.34296,
      "country_code": "US",
      "asciiname": "Waterloo"
    }
  },
  {
    "upper": "Kansas",
    "lower": "Kansas",
    "href": "http:\/\/kansas.backpage.com\/",
    "res": {
      "latitude": 38.50029,
      "admin1_code": "KS",
      "longitude": -98.50063,
      "country_code": "US",
      "asciiname": "Kansas"
    }
  },
  {
    "upper": "Kansas",
    "lower": "Lawrence",
    "href": "http:\/\/lawrence.backpage.com\/",
    "res": {
      "latitude": 38.97167,
      "admin1_code": "KS",
      "longitude": -95.23525,
      "country_code": "US",
      "asciiname": "Lawrence"
    }
  },
  {
    "upper": "Kansas",
    "lower": "Manhattan",
    "href": "http:\/\/manhattanks.backpage.com\/",
    "res": {
      "latitude": 39.18361,
      "admin1_code": "KS",
      "longitude": -96.57167,
      "country_code": "US",
      "asciiname": "Manhattan"
    }
  },
  {
    "upper": "Kansas",
    "lower": "Salina",
    "href": "http:\/\/salina.backpage.com\/",
    "res": {
      "latitude": 38.84028,
      "admin1_code": "KS",
      "longitude": -97.61142,
      "country_code": "US",
      "asciiname": "Salina"
    }
  },
  {
    "upper": "Kansas",
    "lower": "Topeka",
    "href": "http:\/\/topeka.backpage.com\/",
    "res": {
      "latitude": 39.04833,
      "admin1_code": "KS",
      "longitude": -95.67804,
      "country_code": "US",
      "asciiname": "Topeka"
    }
  },
  {
    "upper": "Kansas",
    "lower": "Wichita",
    "href": "http:\/\/wichita.backpage.com\/",
    "res": {
      "latitude": 37.69224,
      "admin1_code": "KS",
      "longitude": -97.33754,
      "country_code": "US",
      "asciiname": "Wichita"
    }
  },
  {
    "upper": "Kentucky",
    "lower": "Kentucky",
    "href": "http:\/\/kentucky.backpage.com\/",
    "res": {
      "latitude": 38.20042,
      "admin1_code": "KY",
      "longitude": -84.87762,
      "country_code": "US",
      "asciiname": "Kentucky"
    }
  },
  {
    "upper": "Kentucky",
    "lower": "Bowling Green",
    "href": "http:\/\/bowlinggreen.backpage.com\/",
    "res": {
      "latitude": 36.99032,
      "admin1_code": "KY",
      "longitude": -86.4436,
      "country_code": "US",
      "asciiname": "Bowling Green"
    }
  },
  {
    "upper": "Kentucky",
    "lower": "Eastern Kentucky",
    "href": "http:\/\/eastky.backpage.com\/",
    "res": {
      "latitude": 37.51704,
      "admin1_code": "KY",
      "longitude": -82.80599,
      "country_code": "US",
      "asciiname": "Eastern"
    }
  },
  {
    "upper": "Kentucky",
    "lower": "Lexington",
    "href": "http:\/\/lexington.backpage.com\/",
    "res": {
      "latitude": 37.98869,
      "admin1_code": "KY",
      "longitude": -84.47772,
      "country_code": "US",
      "asciiname": "Lexington"
    }
  },
  {
    "upper": "Kentucky",
    "lower": "Louisville",
    "href": "http:\/\/louisville.backpage.com\/",
    "res": {
      "latitude": 38.25424,
      "admin1_code": "KY",
      "longitude": -85.75941,
      "country_code": "US",
      "asciiname": "Louisville"
    }
  },
  {
    "upper": "Kentucky",
    "lower": "Owensboro",
    "href": "http:\/\/owensboro.backpage.com\/",
    "res": {
      "latitude": 37.77422,
      "admin1_code": "KY",
      "longitude": -87.11333,
      "country_code": "US",
      "asciiname": "Owensboro"
    }
  },
  {
    "upper": "Kentucky",
    "lower": "Western Kentucky",
    "href": "http:\/\/westky.backpage.com\/",
    "res": null
  },
  {
    "upper": "Louisiana",
    "lower": "Louisiana",
    "href": "http:\/\/louisiana.backpage.com\/",
    "res": {
      "latitude": 31.00047,
      "admin1_code": "LA",
      "longitude": -92.0004,
      "country_code": "US",
      "asciiname": "Louisiana"
    }
  },
  {
    "upper": "Louisiana",
    "lower": "Alexandria",
    "href": "http:\/\/alexandria.backpage.com\/",
    "res": {
      "latitude": 31.31129,
      "admin1_code": "LA",
      "longitude": -92.44514,
      "country_code": "US",
      "asciiname": "Alexandria"
    }
  },
  {
    "upper": "Louisiana",
    "lower": "Baton Rouge",
    "href": "http:\/\/batonrouge.backpage.com\/",
    "res": {
      "latitude": 30.45075,
      "admin1_code": "LA",
      "longitude": -91.15455,
      "country_code": "US",
      "asciiname": "Baton Rouge"
    }
  },
  {
    "upper": "Louisiana",
    "lower": "Houma",
    "href": "http:\/\/houma.backpage.com\/",
    "res": {
      "latitude": 29.59577,
      "admin1_code": "LA",
      "longitude": -90.71953,
      "country_code": "US",
      "asciiname": "Houma"
    }
  },
  {
    "upper": "Louisiana",
    "lower": "Lafayette",
    "href": "http:\/\/lafayette.backpage.com\/",
    "res": {
      "latitude": 30.22409,
      "admin1_code": "LA",
      "longitude": -92.01984,
      "country_code": "US",
      "asciiname": "Lafayette"
    }
  },
  {
    "upper": "Louisiana",
    "lower": "Lake Charles",
    "href": "http:\/\/lakecharles.backpage.com\/",
    "res": {
      "latitude": 30.21309,
      "admin1_code": "LA",
      "longitude": -93.2044,
      "country_code": "US",
      "asciiname": "Lake Charles"
    }
  },
  {
    "upper": "Louisiana",
    "lower": "Monroe",
    "href": "http:\/\/monroe.backpage.com\/",
    "res": {
      "latitude": 32.50931,
      "admin1_code": "LA",
      "longitude": -92.1193,
      "country_code": "US",
      "asciiname": "Monroe"
    }
  },
  {
    "upper": "Louisiana",
    "lower": "New Orleans",
    "href": "http:\/\/neworleans.backpage.com\/",
    "res": {
      "latitude": 29.95465,
      "admin1_code": "LA",
      "longitude": -90.07507,
      "country_code": "US",
      "asciiname": "New Orleans"
    }
  },
  {
    "upper": "Louisiana",
    "lower": "Shreveport",
    "href": "http:\/\/shreveport.backpage.com\/",
    "res": {
      "latitude": 32.52515,
      "admin1_code": "LA",
      "longitude": -93.75018,
      "country_code": "US",
      "asciiname": "Shreveport"
    }
  },
  {
    "upper": "Maine ",
    "lower": "Maine",
    "href": "http:\/\/maine.backpage.com\/",
    "res": {
      "latitude": 45.50032,
      "admin1_code": "ME",
      "longitude": -69.24977,
      "country_code": "US",
      "asciiname": "Maine"
    }
  },
  {
    "upper": "Maryland",
    "lower": "Maryland",
    "href": "http:\/\/maryland.backpage.com\/",
    "res": {
      "latitude": 39.00039,
      "admin1_code": "MD",
      "longitude": -76.74997,
      "country_code": "US",
      "asciiname": "Maryland"
    }
  },
  {
    "upper": "Maryland",
    "lower": "Annapolis",
    "href": "http:\/\/annapolis.backpage.com\/",
    "res": {
      "latitude": 38.97845,
      "admin1_code": "MD",
      "longitude": -76.49218,
      "country_code": "US",
      "asciiname": "Annapolis"
    }
  },
  {
    "upper": "Maryland",
    "lower": "Baltimore",
    "href": "http:\/\/baltimore.backpage.com\/",
    "res": {
      "latitude": 39.29038,
      "admin1_code": "MD",
      "longitude": -76.61219,
      "country_code": "US",
      "asciiname": "Baltimore"
    }
  },
  {
    "upper": "Maryland",
    "lower": "Cumberland Valley",
    "href": "http:\/\/cumberlandvalley.backpage.com\/",
    "res": {
      "latitude": 39.65287,
      "admin1_code": "MD",
      "longitude": -78.76252,
      "country_code": "US",
      "asciiname": "Cumberland"
    }
  },
  {
    "upper": "Maryland",
    "lower": "Eastern Shore",
    "href": "http:\/\/easternshore.backpage.com\/",
    "res": {
      "latitude": 39.10705,
      "admin1_code": "MD",
      "longitude": -76.48496,
      "country_code": "US",
      "asciiname": "Lake Shore"
    }
  },
  {
    "upper": "Maryland",
    "lower": "Frederick",
    "href": "http:\/\/frederick.backpage.com\/",
    "res": {
      "latitude": 39.41427,
      "admin1_code": "MD",
      "longitude": -77.41054,
      "country_code": "US",
      "asciiname": "Frederick"
    }
  },
  {
    "upper": "Maryland",
    "lower": "Western Maryland",
    "href": "http:\/\/westernmaryland.backpage.com\/",
    "res": {
      "latitude": 39.09205,
      "admin1_code": "MD",
      "longitude": -76.81775,
      "country_code": "US",
      "asciiname": "Maryland City"
    }
  },
  {
    "upper": "Massachusetts",
    "lower": "Massachusetts",
    "href": "http:\/\/massachusetts.backpage.com\/",
    "res": {
      "latitude": 42.36565,
      "admin1_code": "MA",
      "longitude": -71.10832,
      "country_code": "US",
      "asciiname": "Massachusetts"
    }
  },
  {
    "upper": "Massachusetts",
    "lower": "Boston",
    "href": "http:\/\/boston.backpage.com\/",
    "res": {
      "latitude": 42.35843,
      "admin1_code": "MA",
      "longitude": -71.05977,
      "country_code": "US",
      "asciiname": "Boston"
    }
  },
  {
    "upper": "Massachusetts",
    "lower": "Cape Cod",
    "href": "http:\/\/capecod.backpage.com\/",
    "res": null
  },
  {
    "upper": "Massachusetts",
    "lower": "South Coast",
    "href": "http:\/\/southcoast.backpage.com\/",
    "res": {
      "latitude": 42.41398,
      "admin1_code": "MA",
      "longitude": -71.32589,
      "country_code": "US",
      "asciiname": "South Lincoln"
    }
  },
  {
    "upper": "Massachusetts",
    "lower": "Springfield",
    "href": "http:\/\/springfield.backpage.com\/",
    "res": {
      "latitude": 42.10148,
      "admin1_code": "MA",
      "longitude": -72.58981,
      "country_code": "US",
      "asciiname": "Springfield"
    }
  },
  {
    "upper": "Massachusetts",
    "lower": "Worcester",
    "href": "http:\/\/worcester.backpage.com\/",
    "res": {
      "latitude": 42.26259,
      "admin1_code": "MA",
      "longitude": -71.80229,
      "country_code": "US",
      "asciiname": "Worcester"
    }
  },
  {
    "upper": "Michigan",
    "lower": "Michigan",
    "href": "http:\/\/michigan.backpage.com\/",
    "res": {
      "latitude": 44.25029,
      "admin1_code": "MI",
      "longitude": -85.50033,
      "country_code": "US",
      "asciiname": "Michigan"
    }
  },
  {
    "upper": "Michigan",
    "lower": "Ann Arbor",
    "href": "http:\/\/annarbor.backpage.com\/",
    "res": {
      "latitude": 42.27756,
      "admin1_code": "MI",
      "longitude": -83.74088,
      "country_code": "US",
      "asciiname": "Ann Arbor"
    }
  },
  {
    "upper": "Michigan",
    "lower": "Battle Creek",
    "href": "http:\/\/battlecreek.backpage.com\/",
    "res": {
      "latitude": 42.32115,
      "admin1_code": "MI",
      "longitude": -85.17971,
      "country_code": "US",
      "asciiname": "Battle Creek"
    }
  },
  {
    "upper": "Michigan",
    "lower": "Central Michigan",
    "href": "http:\/\/centralmich.backpage.com\/",
    "res": {
      "latitude": 42.23309,
      "admin1_code": "MI",
      "longitude": -84.32718,
      "country_code": "US",
      "asciiname": "Michigan Center"
    }
  },
  {
    "upper": "Michigan",
    "lower": "Detroit",
    "href": "http:\/\/detroit.backpage.com\/",
    "res": {
      "latitude": 42.33143,
      "admin1_code": "MI",
      "longitude": -83.04575,
      "country_code": "US",
      "asciiname": "Detroit"
    }
  },
  {
    "upper": "Michigan",
    "lower": "Flint",
    "href": "http:\/\/flint.backpage.com\/",
    "res": {
      "latitude": 43.01253,
      "admin1_code": "MI",
      "longitude": -83.68746,
      "country_code": "US",
      "asciiname": "Flint"
    }
  },
  {
    "upper": "Michigan",
    "lower": "Grand Rapids",
    "href": "http:\/\/grandrapids.backpage.com\/",
    "res": {
      "latitude": 42.96336,
      "admin1_code": "MI",
      "longitude": -85.66809,
      "country_code": "US",
      "asciiname": "Grand Rapids"
    }
  },
  {
    "upper": "Michigan",
    "lower": "Holland",
    "href": "http:\/\/holland.backpage.com\/",
    "res": {
      "latitude": 42.78752,
      "admin1_code": "MI",
      "longitude": -86.10893,
      "country_code": "US",
      "asciiname": "Holland"
    }
  },
  {
    "upper": "Michigan",
    "lower": "Jackson",
    "href": "http:\/\/jacksonmi.backpage.com\/",
    "res": {
      "latitude": 42.24587,
      "admin1_code": "MI",
      "longitude": -84.40135,
      "country_code": "US",
      "asciiname": "Jackson"
    }
  },
  {
    "upper": "Michigan",
    "lower": "Kalamazoo",
    "href": "http:\/\/kalamazoo.backpage.com\/",
    "res": {
      "latitude": 42.29171,
      "admin1_code": "MI",
      "longitude": -85.58723,
      "country_code": "US",
      "asciiname": "Kalamazoo"
    }
  },
  {
    "upper": "Michigan",
    "lower": "Lansing",
    "href": "http:\/\/lansing.backpage.com\/",
    "res": {
      "latitude": 42.73254,
      "admin1_code": "MI",
      "longitude": -84.55553,
      "country_code": "US",
      "asciiname": "Lansing"
    }
  },
  {
    "upper": "Michigan",
    "lower": "Monroe",
    "href": "http:\/\/monroemi.backpage.com\/",
    "res": {
      "latitude": 41.91643,
      "admin1_code": "MI",
      "longitude": -83.39771,
      "country_code": "US",
      "asciiname": "Monroe"
    }
  },
  {
    "upper": "Michigan",
    "lower": "Muskegon",
    "href": "http:\/\/muskegon.backpage.com\/",
    "res": {
      "latitude": 43.23418,
      "admin1_code": "MI",
      "longitude": -86.24839,
      "country_code": "US",
      "asciiname": "Muskegon"
    }
  },
  {
    "upper": "Michigan",
    "lower": "Northern Michigan",
    "href": "http:\/\/northernmichigan.backpage.com\/",
    "res": {
      "latitude": 42.23309,
      "admin1_code": "MI",
      "longitude": -84.32718,
      "country_code": "US",
      "asciiname": "Michigan Center"
    }
  },
  {
    "upper": "Michigan",
    "lower": "Port Huron",
    "href": "http:\/\/porthuron.backpage.com\/",
    "res": {
      "latitude": 42.97086,
      "admin1_code": "MI",
      "longitude": -82.42491,
      "country_code": "US",
      "asciiname": "Port Huron"
    }
  },
  {
    "upper": "Michigan",
    "lower": "Saginaw",
    "href": "http:\/\/saginaw.backpage.com\/",
    "res": {
      "latitude": 43.41947,
      "admin1_code": "MI",
      "longitude": -83.95081,
      "country_code": "US",
      "asciiname": "Saginaw"
    }
  },
  {
    "upper": "Michigan",
    "lower": "Southwest Michigan",
    "href": "http:\/\/swmi.backpage.com\/",
    "res": {
      "latitude": 42.23309,
      "admin1_code": "MI",
      "longitude": -84.32718,
      "country_code": "US",
      "asciiname": "Michigan Center"
    }
  },
  {
    "upper": "Michigan",
    "lower": "Upper Peninsula",
    "href": "http:\/\/up.backpage.com\/",
    "res": null
  },
  {
    "upper": "Minnesota",
    "lower": "Minnesota",
    "href": "http:\/\/minnesota.backpage.com\/",
    "res": {
      "latitude": 46.25024,
      "admin1_code": "MN",
      "longitude": -94.25055,
      "country_code": "US",
      "asciiname": "Minnesota"
    }
  },
  {
    "upper": "Minnesota",
    "lower": "Bemidji",
    "href": "http:\/\/bemidji.backpage.com\/",
    "res": {
      "latitude": 47.47356,
      "admin1_code": "MN",
      "longitude": -94.88028,
      "country_code": "US",
      "asciiname": "Bemidji"
    }
  },
  {
    "upper": "Minnesota",
    "lower": "Brainerd",
    "href": "http:\/\/brainerd.backpage.com\/",
    "res": {
      "latitude": 46.35802,
      "admin1_code": "MN",
      "longitude": -94.20083,
      "country_code": "US",
      "asciiname": "Brainerd"
    }
  },
  {
    "upper": "Minnesota",
    "lower": "Duluth",
    "href": "http:\/\/duluth.backpage.com\/",
    "res": {
      "latitude": 46.78327,
      "admin1_code": "MN",
      "longitude": -92.10658,
      "country_code": "US",
      "asciiname": "Duluth"
    }
  },
  {
    "upper": "Minnesota",
    "lower": "Mankato",
    "href": "http:\/\/mankato.backpage.com\/",
    "res": {
      "latitude": 44.16358,
      "admin1_code": "MN",
      "longitude": -93.9994,
      "country_code": "US",
      "asciiname": "Mankato"
    }
  },
  {
    "upper": "Minnesota",
    "lower": "Minneapolis St Paul",
    "href": "http:\/\/minneapolis.backpage.com\/",
    "res": {
      "latitude": 44.97997,
      "admin1_code": "MN",
      "longitude": -93.26384,
      "country_code": "US",
      "asciiname": "Minneapolis"
    }
  },
  {
    "upper": "Minnesota",
    "lower": "Rochester",
    "href": "http:\/\/rochestermn.backpage.com\/",
    "res": {
      "latitude": 44.02163,
      "admin1_code": "MN",
      "longitude": -92.4699,
      "country_code": "US",
      "asciiname": "Rochester"
    }
  },
  {
    "upper": "Minnesota",
    "lower": "St Cloud",
    "href": "http:\/\/stcloud.backpage.com\/",
    "res": {
      "latitude": 45.5608,
      "admin1_code": "MN",
      "longitude": -94.16249,
      "country_code": "US",
      "asciiname": "Saint Cloud"
    }
  },
  {
    "upper": "Mississippi",
    "lower": "Mississippi",
    "href": "http:\/\/mississippi.backpage.com\/",
    "res": {
      "latitude": 32.75041,
      "admin1_code": "MS",
      "longitude": -89.75036,
      "country_code": "US",
      "asciiname": "Mississippi"
    }
  },
  {
    "upper": "Mississippi",
    "lower": "Biloxi",
    "href": "http:\/\/biloxi.backpage.com\/",
    "res": {
      "latitude": 30.39603,
      "admin1_code": "MS",
      "longitude": -88.88531,
      "country_code": "US",
      "asciiname": "Biloxi"
    }
  },
  {
    "upper": "Mississippi",
    "lower": "Hattiesburg",
    "href": "http:\/\/hattiesburg.backpage.com\/",
    "res": {
      "latitude": 31.32712,
      "admin1_code": "MS",
      "longitude": -89.29034,
      "country_code": "US",
      "asciiname": "Hattiesburg"
    }
  },
  {
    "upper": "Mississippi",
    "lower": "Jackson",
    "href": "http:\/\/jackson.backpage.com\/",
    "res": {
      "latitude": 32.29876,
      "admin1_code": "MS",
      "longitude": -90.18481,
      "country_code": "US",
      "asciiname": "Jackson"
    }
  },
  {
    "upper": "Mississippi",
    "lower": "Meridian",
    "href": "http:\/\/meridian.backpage.com\/",
    "res": {
      "latitude": 32.36431,
      "admin1_code": "MS",
      "longitude": -88.70366,
      "country_code": "US",
      "asciiname": "Meridian"
    }
  },
  {
    "upper": "Mississippi",
    "lower": "North Mississippi",
    "href": "http:\/\/northmiss.backpage.com\/",
    "res": {
      "latitude": 30.38186,
      "admin1_code": "MS",
      "longitude": -89.04392,
      "country_code": "US",
      "asciiname": "Mississippi City"
    }
  },
  {
    "upper": "Mississippi",
    "lower": "Southwest Mississippi",
    "href": "http:\/\/natchez.backpage.com\/",
    "res": {
      "latitude": 30.38186,
      "admin1_code": "MS",
      "longitude": -89.04392,
      "country_code": "US",
      "asciiname": "Mississippi City"
    }
  },
  {
    "upper": "Missouri",
    "lower": "Missouri",
    "href": "http:\/\/missouri.backpage.com\/",
    "res": {
      "latitude": 38.25031,
      "admin1_code": "MO",
      "longitude": -92.50046,
      "country_code": "US",
      "asciiname": "Missouri"
    }
  },
  {
    "upper": "Missouri",
    "lower": "Columbia Jeff City",
    "href": "http:\/\/columbiamo.backpage.com\/",
    "res": {
      "latitude": 36.50756,
      "admin1_code": "MO",
      "longitude": -91.38819,
      "country_code": "US",
      "asciiname": "Jeff"
    }
  },
  {
    "upper": "Missouri",
    "lower": "Joplin",
    "href": "http:\/\/joplin.backpage.com\/",
    "res": {
      "latitude": 37.08423,
      "admin1_code": "MO",
      "longitude": -94.51328,
      "country_code": "US",
      "asciiname": "Joplin"
    }
  },
  {
    "upper": "Missouri",
    "lower": "Kansas City",
    "href": "http:\/\/kc.backpage.com\/",
    "res": {
      "latitude": 39.09973,
      "admin1_code": "MO",
      "longitude": -94.57857,
      "country_code": "US",
      "asciiname": "Kansas City"
    }
  },
  {
    "upper": "Missouri",
    "lower": "Kirksville",
    "href": "http:\/\/kirksville.backpage.com\/",
    "res": {
      "latitude": 40.19475,
      "admin1_code": "MO",
      "longitude": -92.58325,
      "country_code": "US",
      "asciiname": "Kirksville"
    }
  },
  {
    "upper": "Missouri",
    "lower": "Lake Of The Ozarks",
    "href": "http:\/\/loz.backpage.com\/",
    "res": {
      "latitude": 36.69243,
      "admin1_code": "MO",
      "longitude": -93.11907,
      "country_code": "US",
      "asciiname": "Shepherd of the Hills Estates"
    }
  },
  {
    "upper": "Missouri",
    "lower": "Southeast Missouri",
    "href": "http:\/\/semo.backpage.com\/",
    "res": {
      "latitude": 39.24084,
      "admin1_code": "MO",
      "longitude": -94.288,
      "country_code": "US",
      "asciiname": "Missouri City"
    }
  },
  {
    "upper": "Missouri",
    "lower": "Springfield",
    "href": "http:\/\/springfieldmo.backpage.com\/",
    "res": {
      "latitude": 37.21533,
      "admin1_code": "MO",
      "longitude": -93.29824,
      "country_code": "US",
      "asciiname": "Springfield"
    }
  },
  {
    "upper": "Missouri",
    "lower": "St Joseph",
    "href": "http:\/\/stjoseph.backpage.com\/",
    "res": {
      "latitude": 39.76861,
      "admin1_code": "MO",
      "longitude": -94.84663,
      "country_code": "US",
      "asciiname": "Saint Joseph"
    }
  },
  {
    "upper": "Missouri",
    "lower": "St Louis",
    "href": "http:\/\/stlouis.backpage.com\/",
    "res": {
      "latitude": 38.62727,
      "admin1_code": "MO",
      "longitude": -90.19789,
      "country_code": "US",
      "asciiname": "St. Louis"
    }
  },
  {
    "upper": "Montana",
    "lower": "Montana",
    "href": "http:\/\/montana.backpage.com\/",
    "res": {
      "latitude": 47.00025,
      "admin1_code": "MT",
      "longitude": -109.75102,
      "country_code": "US",
      "asciiname": "Montana"
    }
  },
  {
    "upper": "Montana",
    "lower": "Billings",
    "href": "http:\/\/billings.backpage.com\/",
    "res": {
      "latitude": 45.78329,
      "admin1_code": "MT",
      "longitude": -108.50069,
      "country_code": "US",
      "asciiname": "Billings"
    }
  },
  {
    "upper": "Montana",
    "lower": "Bozeman",
    "href": "http:\/\/bozeman.backpage.com\/",
    "res": {
      "latitude": 45.67965,
      "admin1_code": "MT",
      "longitude": -111.03856,
      "country_code": "US",
      "asciiname": "Bozeman"
    }
  },
  {
    "upper": "Montana",
    "lower": "Butte",
    "href": "http:\/\/butte.backpage.com\/",
    "res": {
      "latitude": 46.00382,
      "admin1_code": "MT",
      "longitude": -112.53474,
      "country_code": "US",
      "asciiname": "Butte"
    }
  },
  {
    "upper": "Montana",
    "lower": "Great Falls",
    "href": "http:\/\/greatfalls.backpage.com\/",
    "res": {
      "latitude": 47.50024,
      "admin1_code": "MT",
      "longitude": -111.30081,
      "country_code": "US",
      "asciiname": "Great Falls"
    }
  },
  {
    "upper": "Montana",
    "lower": "Helena",
    "href": "http:\/\/helena.backpage.com\/",
    "res": {
      "latitude": 46.59271,
      "admin1_code": "MT",
      "longitude": -112.03611,
      "country_code": "US",
      "asciiname": "Helena"
    }
  },
  {
    "upper": "Montana",
    "lower": "Kalispell",
    "href": "http:\/\/kalispell.backpage.com\/",
    "res": {
      "latitude": 48.19579,
      "admin1_code": "MT",
      "longitude": -114.31291,
      "country_code": "US",
      "asciiname": "Kalispell"
    }
  },
  {
    "upper": "Montana",
    "lower": "Missoula",
    "href": "http:\/\/missoula.backpage.com\/",
    "res": {
      "latitude": 46.87215,
      "admin1_code": "MT",
      "longitude": -113.994,
      "country_code": "US",
      "asciiname": "Missoula"
    }
  },
  {
    "upper": "Nebraska",
    "lower": "Nebraska",
    "href": "http:\/\/nebraska.backpage.com\/",
    "res": {
      "latitude": 41.50028,
      "admin1_code": "NE",
      "longitude": -99.75067,
      "country_code": "US",
      "asciiname": "Nebraska"
    }
  },
  {
    "upper": "Nebraska",
    "lower": "Grand Island",
    "href": "http:\/\/grandisland.backpage.com\/",
    "res": {
      "latitude": 40.92501,
      "admin1_code": "NE",
      "longitude": -98.34201,
      "country_code": "US",
      "asciiname": "Grand Island"
    }
  },
  {
    "upper": "Nebraska",
    "lower": "Lincoln",
    "href": "http:\/\/lincoln.backpage.com\/",
    "res": {
      "latitude": 40.8,
      "admin1_code": "NE",
      "longitude": -96.66696,
      "country_code": "US",
      "asciiname": "Lincoln"
    }
  },
  {
    "upper": "Nebraska",
    "lower": "North Platte",
    "href": "http:\/\/northplatte.backpage.com\/",
    "res": {
      "latitude": 41.12389,
      "admin1_code": "NE",
      "longitude": -100.76542,
      "country_code": "US",
      "asciiname": "North Platte"
    }
  },
  {
    "upper": "Nebraska",
    "lower": "Omaha",
    "href": "http:\/\/omaha.backpage.com\/",
    "res": {
      "latitude": 41.25861,
      "admin1_code": "NE",
      "longitude": -95.93779,
      "country_code": "US",
      "asciiname": "Omaha"
    }
  },
  {
    "upper": "Nebraska",
    "lower": "Scottsbluff",
    "href": "http:\/\/scottsbluff.backpage.com\/",
    "res": {
      "latitude": 41.86663,
      "admin1_code": "NE",
      "longitude": -103.66717,
      "country_code": "US",
      "asciiname": "Scottsbluff"
    }
  },
  {
    "upper": "Nevada",
    "lower": "Nevada",
    "href": "http:\/\/nevada.backpage.com\/",
    "res": {
      "latitude": 39.25021,
      "admin1_code": "NV",
      "longitude": -116.75119,
      "country_code": "US",
      "asciiname": "Nevada"
    }
  },
  {
    "upper": "Nevada",
    "lower": "Elko",
    "href": "http:\/\/elko.backpage.com\/",
    "res": {
      "latitude": 40.83242,
      "admin1_code": "NV",
      "longitude": -115.76312,
      "country_code": "US",
      "asciiname": "Elko"
    }
  },
  {
    "upper": "Nevada",
    "lower": "Las Vegas",
    "href": "http:\/\/lasvegas.backpage.com\/",
    "res": {
      "latitude": 36.17497,
      "admin1_code": "NV",
      "longitude": -115.13722,
      "country_code": "US",
      "asciiname": "Las Vegas"
    }
  },
  {
    "upper": "Nevada",
    "lower": "Reno",
    "href": "http:\/\/reno.backpage.com\/",
    "res": {
      "latitude": 39.52963,
      "admin1_code": "NV",
      "longitude": -119.8138,
      "country_code": "US",
      "asciiname": "Reno"
    }
  },
  {
    "upper": "New Hampshire ",
    "lower": "New Hampshire",
    "href": "http:\/\/newhampshire.backpage.com\/",
    "res": {
      "latitude": 43.66702,
      "admin1_code": "NH",
      "longitude": -71.4998,
      "country_code": "US",
      "asciiname": "New Hampshire"
    }
  },
  {
    "upper": "New Jersey",
    "lower": "New Jersey",
    "href": "http:\/\/newjersey.backpage.com\/",
    "res": {
      "latitude": 40.16706,
      "admin1_code": "NJ",
      "longitude": -74.49987,
      "country_code": "US",
      "asciiname": "New Jersey"
    }
  },
  {
    "upper": "New Jersey",
    "lower": "Central Jersey",
    "href": "http:\/\/centraljersey.backpage.com\/",
    "res": {
      "latitude": 40.72816,
      "admin1_code": "NJ",
      "longitude": -74.07764,
      "country_code": "US",
      "asciiname": "Jersey City"
    }
  },
  {
    "upper": "New Jersey",
    "lower": "Jersey Shore",
    "href": "http:\/\/jerseyshore.backpage.com\/",
    "res": {
      "latitude": 40.72816,
      "admin1_code": "NJ",
      "longitude": -74.07764,
      "country_code": "US",
      "asciiname": "Jersey City"
    }
  },
  {
    "upper": "New Jersey",
    "lower": "North Jersey",
    "href": "http:\/\/northjersey.backpage.com\/",
    "res": {
      "latitude": 40.72816,
      "admin1_code": "NJ",
      "longitude": -74.07764,
      "country_code": "US",
      "asciiname": "Jersey City"
    }
  },
  {
    "upper": "New Jersey",
    "lower": "South Jersey",
    "href": "http:\/\/southjersey.backpage.com\/",
    "res": {
      "latitude": 40.72816,
      "admin1_code": "NJ",
      "longitude": -74.07764,
      "country_code": "US",
      "asciiname": "Jersey City"
    }
  },
  {
    "upper": "New Mexico",
    "lower": "New Mexico",
    "href": "http:\/\/newmexico.backpage.com\/",
    "res": {
      "latitude": 34.50034,
      "admin1_code": "NM",
      "longitude": -106.00085,
      "country_code": "US",
      "asciiname": "New Mexico"
    }
  },
  {
    "upper": "New Mexico",
    "lower": "Albuquerque",
    "href": "http:\/\/albuquerque.backpage.com\/",
    "res": {
      "latitude": 35.08449,
      "admin1_code": "NM",
      "longitude": -106.65114,
      "country_code": "US",
      "asciiname": "Albuquerque"
    }
  },
  {
    "upper": "New Mexico",
    "lower": "Clovis Portales",
    "href": "http:\/\/clovis.backpage.com\/",
    "res": {
      "latitude": 34.4048,
      "admin1_code": "NM",
      "longitude": -103.20523,
      "country_code": "US",
      "asciiname": "Clovis"
    }
  },
  {
    "upper": "New Mexico",
    "lower": "Farmington",
    "href": "http:\/\/farmington.backpage.com\/",
    "res": {
      "latitude": 36.72806,
      "admin1_code": "NM",
      "longitude": -108.21869,
      "country_code": "US",
      "asciiname": "Farmington"
    }
  },
  {
    "upper": "New Mexico",
    "lower": "Las Cruces",
    "href": "http:\/\/lascruces.backpage.com\/",
    "res": {
      "latitude": 32.31232,
      "admin1_code": "NM",
      "longitude": -106.77834,
      "country_code": "US",
      "asciiname": "Las Cruces"
    }
  },
  {
    "upper": "New Mexico",
    "lower": "Roswell Carlsbad",
    "href": "http:\/\/roswell.backpage.com\/",
    "res": {
      "latitude": 32.42067,
      "admin1_code": "NM",
      "longitude": -104.22884,
      "country_code": "US",
      "asciiname": "Carlsbad"
    }
  },
  {
    "upper": "New Mexico",
    "lower": "Santa Fe Taos",
    "href": "http:\/\/santafe.backpage.com\/",
    "res": {
      "latitude": 35.68698,
      "admin1_code": "NM",
      "longitude": -105.9378,
      "country_code": "US",
      "asciiname": "Santa Fe"
    }
  },
  {
    "upper": "New York",
    "lower": "New York",
    "href": "http:\/\/newyork.backpage.com\/",
    "res": {
      "latitude": 43.00035,
      "admin1_code": "NY",
      "longitude": -75.4999,
      "country_code": "US",
      "asciiname": "New York"
    }
  },
  {
    "upper": "New York",
    "lower": "Albany",
    "href": "http:\/\/albany.backpage.com\/",
    "res": {
      "latitude": 42.65258,
      "admin1_code": "NY",
      "longitude": -73.75623,
      "country_code": "US",
      "asciiname": "Albany"
    }
  },
  {
    "upper": "New York",
    "lower": "Binghamton",
    "href": "http:\/\/binghamton.backpage.com\/",
    "res": {
      "latitude": 42.09869,
      "admin1_code": "NY",
      "longitude": -75.91797,
      "country_code": "US",
      "asciiname": "Binghamton"
    }
  },
  {
    "upper": "New York",
    "lower": "Bronx",
    "href": "http:\/\/bronx.backpage.com\/",
    "res": {
      "latitude": 40.84985,
      "admin1_code": "NY",
      "longitude": -73.86641,
      "country_code": "US",
      "asciiname": "The Bronx"
    }
  },
  {
    "upper": "New York",
    "lower": "Brooklyn",
    "href": "http:\/\/brooklyn.backpage.com\/",
    "res": {
      "latitude": 42.43312,
      "admin1_code": "NY",
      "longitude": -78.74836,
      "country_code": "US",
      "asciiname": "Brooklyn"
    }
  },
  {
    "upper": "New York",
    "lower": "Buffalo",
    "href": "http:\/\/buffalo.backpage.com\/",
    "res": {
      "latitude": 42.88645,
      "admin1_code": "NY",
      "longitude": -78.87837,
      "country_code": "US",
      "asciiname": "Buffalo"
    }
  },
  {
    "upper": "New York",
    "lower": "Catskills",
    "href": "http:\/\/catskills.backpage.com\/",
    "res": null
  },
  {
    "upper": "New York",
    "lower": "Chautauqua",
    "href": "http:\/\/chautauqua.backpage.com\/",
    "res": {
      "latitude": 42.20978,
      "admin1_code": "NY",
      "longitude": -79.46671,
      "country_code": "US",
      "asciiname": "Chautauqua"
    }
  },
  {
    "upper": "New York",
    "lower": "Elmira",
    "href": "http:\/\/elmira.backpage.com\/",
    "res": {
      "latitude": 42.0898,
      "admin1_code": "NY",
      "longitude": -76.80773,
      "country_code": "US",
      "asciiname": "Elmira"
    }
  },
  {
    "upper": "New York",
    "lower": "Fairfield",
    "href": "http:\/\/fairfield.backpage.com\/",
    "res": {
      "latitude": 42.23257,
      "admin1_code": "NY",
      "longitude": -76.27854,
      "country_code": "US",
      "asciiname": "Fairfield"
    }
  },
  {
    "upper": "New York",
    "lower": "Finger Lakes",
    "href": "http:\/\/fingerlakes.backpage.com\/",
    "res": {
      "latitude": 41.29926,
      "admin1_code": "NY",
      "longitude": -73.56985,
      "country_code": "US",
      "asciiname": "Twin Lakes Village"
    }
  },
  {
    "upper": "New York",
    "lower": "Glens Falls",
    "href": "http:\/\/glensfalls.backpage.com\/",
    "res": {
      "latitude": 43.30952,
      "admin1_code": "NY",
      "longitude": -73.64401,
      "country_code": "US",
      "asciiname": "Glens Falls"
    }
  },
  {
    "upper": "New York",
    "lower": "Hudson Valley",
    "href": "http:\/\/hudsonvalley.backpage.com\/",
    "res": {
      "latitude": 41.54528,
      "admin1_code": "NY",
      "longitude": -74.00972,
      "country_code": "US",
      "asciiname": "Hudson Valley Mobile Home Park"
    }
  },
  {
    "upper": "New York",
    "lower": "Ithaca",
    "href": "http:\/\/ithaca.backpage.com\/",
    "res": {
      "latitude": 42.44063,
      "admin1_code": "NY",
      "longitude": -76.49661,
      "country_code": "US",
      "asciiname": "Ithaca"
    }
  },
  {
    "upper": "New York",
    "lower": "Long Island",
    "href": "http:\/\/longisland.backpage.com\/",
    "res": {
      "latitude": 40.74482,
      "admin1_code": "NY",
      "longitude": -73.94875,
      "country_code": "US",
      "asciiname": "Long Island City"
    }
  },
  {
    "upper": "New York",
    "lower": "Manhattan",
    "href": "http:\/\/manhattan.backpage.com\/",
    "res": {
      "latitude": 40.78343,
      "admin1_code": "NY",
      "longitude": -73.96625,
      "country_code": "US",
      "asciiname": "Manhattan"
    }
  },
  {
    "upper": "New York",
    "lower": "Oneonta",
    "href": "http:\/\/oneonta.backpage.com\/",
    "res": {
      "latitude": 42.45286,
      "admin1_code": "NY",
      "longitude": -75.06377,
      "country_code": "US",
      "asciiname": "Oneonta"
    }
  },
  {
    "upper": "New York",
    "lower": "Plattsburgh",
    "href": "http:\/\/plattsburgh.backpage.com\/",
    "res": {
      "latitude": 44.69949,
      "admin1_code": "NY",
      "longitude": -73.45291,
      "country_code": "US",
      "asciiname": "Plattsburgh"
    }
  },
  {
    "upper": "New York",
    "lower": "Potsdam",
    "href": "http:\/\/potsdam.backpage.com\/",
    "res": {
      "latitude": 44.66978,
      "admin1_code": "NY",
      "longitude": -74.98131,
      "country_code": "US",
      "asciiname": "Potsdam"
    }
  },
  {
    "upper": "New York",
    "lower": "Queens",
    "href": "http:\/\/queens.backpage.com\/",
    "res": {
      "latitude": 40.74982,
      "admin1_code": "NY",
      "longitude": -73.79763,
      "country_code": "US",
      "asciiname": "Queens"
    }
  },
  {
    "upper": "New York",
    "lower": "Rochester",
    "href": "http:\/\/rochester.backpage.com\/",
    "res": {
      "latitude": 43.15478,
      "admin1_code": "NY",
      "longitude": -77.61556,
      "country_code": "US",
      "asciiname": "Rochester"
    }
  },
  {
    "upper": "New York",
    "lower": "Staten Island",
    "href": "http:\/\/statenisland.backpage.com\/",
    "res": {
      "latitude": 40.56233,
      "admin1_code": "NY",
      "longitude": -74.13986,
      "country_code": "US",
      "asciiname": "Staten Island"
    }
  },
  {
    "upper": "New York",
    "lower": "Syracuse",
    "href": "http:\/\/syracuse.backpage.com\/",
    "res": {
      "latitude": 43.04812,
      "admin1_code": "NY",
      "longitude": -76.14742,
      "country_code": "US",
      "asciiname": "Syracuse"
    }
  },
  {
    "upper": "New York",
    "lower": "Twin Tiers",
    "href": "http:\/\/twintiers.backpage.com\/",
    "res": {
      "latitude": 42.0973,
      "admin1_code": "NY",
      "longitude": -76.02631,
      "country_code": "US",
      "asciiname": "Twin Orchard"
    }
  },
  {
    "upper": "New York",
    "lower": "Utica",
    "href": "http:\/\/utica.backpage.com\/",
    "res": {
      "latitude": 43.1009,
      "admin1_code": "NY",
      "longitude": -75.23266,
      "country_code": "US",
      "asciiname": "Utica"
    }
  },
  {
    "upper": "New York",
    "lower": "Watertown",
    "href": "http:\/\/watertown.backpage.com\/",
    "res": {
      "latitude": 43.97478,
      "admin1_code": "NY",
      "longitude": -75.91076,
      "country_code": "US",
      "asciiname": "Watertown"
    }
  },
  {
    "upper": "New York",
    "lower": "Westchester",
    "href": "http:\/\/westchester.backpage.com\/",
    "res": {
      "latitude": 40.84722,
      "admin1_code": "NY",
      "longitude": -73.85528,
      "country_code": "US",
      "asciiname": "Westchester"
    }
  },
  {
    "upper": "North Carolina",
    "lower": "North Carolina",
    "href": "http:\/\/northcarolina.backpage.com\/",
    "res": {
      "latitude": 35.50069,
      "admin1_code": "NC",
      "longitude": -80.00032,
      "country_code": "US",
      "asciiname": "North Carolina"
    }
  },
  {
    "upper": "North Carolina",
    "lower": "Asheville",
    "href": "http:\/\/asheville.backpage.com\/",
    "res": {
      "latitude": 35.60095,
      "admin1_code": "NC",
      "longitude": -82.55402,
      "country_code": "US",
      "asciiname": "Asheville"
    }
  },
  {
    "upper": "North Carolina",
    "lower": "Boone",
    "href": "http:\/\/boone.backpage.com\/",
    "res": {
      "latitude": 36.2168,
      "admin1_code": "NC",
      "longitude": -81.67455,
      "country_code": "US",
      "asciiname": "Boone"
    }
  },
  {
    "upper": "North Carolina",
    "lower": "Charlotte",
    "href": "http:\/\/charlotte.backpage.com\/",
    "res": {
      "latitude": 35.22709,
      "admin1_code": "NC",
      "longitude": -80.84313,
      "country_code": "US",
      "asciiname": "Charlotte"
    }
  },
  {
    "upper": "North Carolina",
    "lower": "Eastern",
    "href": "http:\/\/easternnc.backpage.com\/",
    "res": {
      "latitude": 35.80153,
      "admin1_code": "NC",
      "longitude": -80.23116,
      "country_code": "US",
      "asciiname": "Eastern Heights"
    }
  },
  {
    "upper": "North Carolina",
    "lower": "Fayetteville",
    "href": "http:\/\/fayettevillenc.backpage.com\/",
    "res": {
      "latitude": 35.05266,
      "admin1_code": "NC",
      "longitude": -78.87836,
      "country_code": "US",
      "asciiname": "Fayetteville"
    }
  },
  {
    "upper": "North Carolina",
    "lower": "Greensboro",
    "href": "http:\/\/greensboro.backpage.com\/",
    "res": {
      "latitude": 36.07264,
      "admin1_code": "NC",
      "longitude": -79.79198,
      "country_code": "US",
      "asciiname": "Greensboro"
    }
  },
  {
    "upper": "North Carolina",
    "lower": "Hickory",
    "href": "http:\/\/hickory.backpage.com\/",
    "res": {
      "latitude": 35.73319,
      "admin1_code": "NC",
      "longitude": -81.3412,
      "country_code": "US",
      "asciiname": "Hickory"
    }
  },
  {
    "upper": "North Carolina",
    "lower": "Outer Banks",
    "href": "http:\/\/outerbanks.backpage.com\/",
    "res": {
      "latitude": 35.63571,
      "admin1_code": "NC",
      "longitude": -78.71418,
      "country_code": "US",
      "asciiname": "Banks"
    }
  },
  {
    "upper": "North Carolina",
    "lower": "Raleigh durham",
    "href": "http:\/\/raleigh.backpage.com\/",
    "res": {
      "latitude": 35.7721,
      "admin1_code": "NC",
      "longitude": -78.63861,
      "country_code": "US",
      "asciiname": "Raleigh"
    }
  },
  {
    "upper": "North Carolina",
    "lower": "Wilmington",
    "href": "http:\/\/wilmington.backpage.com\/",
    "res": {
      "latitude": 34.22573,
      "admin1_code": "NC",
      "longitude": -77.94471,
      "country_code": "US",
      "asciiname": "Wilmington"
    }
  },
  {
    "upper": "North Carolina",
    "lower": "Winston Salem",
    "href": "http:\/\/winstonsalem.backpage.com\/",
    "res": {
      "latitude": 36.09986,
      "admin1_code": "NC",
      "longitude": -80.24422,
      "country_code": "US",
      "asciiname": "Winston-Salem"
    }
  },
  {
    "upper": "North Dakota",
    "lower": "North Dakota",
    "href": "http:\/\/northdakota.backpage.com\/",
    "res": {
      "latitude": 47.50027,
      "admin1_code": "ND",
      "longitude": -100.00068,
      "country_code": "US",
      "asciiname": "North Dakota"
    }
  },
  {
    "upper": "North Dakota",
    "lower": "Bismarck",
    "href": "http:\/\/bismarck.backpage.com\/",
    "res": {
      "latitude": 46.80833,
      "admin1_code": "ND",
      "longitude": -100.78374,
      "country_code": "US",
      "asciiname": "Bismarck"
    }
  },
  {
    "upper": "North Dakota",
    "lower": "Fargo",
    "href": "http:\/\/fargo.backpage.com\/",
    "res": {
      "latitude": 46.87719,
      "admin1_code": "ND",
      "longitude": -96.7898,
      "country_code": "US",
      "asciiname": "Fargo"
    }
  },
  {
    "upper": "North Dakota",
    "lower": "Grand Forks",
    "href": "http:\/\/grandforks.backpage.com\/",
    "res": {
      "latitude": 47.92526,
      "admin1_code": "ND",
      "longitude": -97.03285,
      "country_code": "US",
      "asciiname": "Grand Forks"
    }
  },
  {
    "upper": "North Dakota",
    "lower": "Minot",
    "href": "http:\/\/minot.backpage.com\/",
    "res": {
      "latitude": 48.23251,
      "admin1_code": "ND",
      "longitude": -101.29627,
      "country_code": "US",
      "asciiname": "Minot"
    }
  },
  {
    "upper": "Ohio",
    "lower": "Ohio",
    "href": "http:\/\/ohio.backpage.com\/",
    "res": {
      "latitude": 40.25034,
      "admin1_code": "OH",
      "longitude": -83.00018,
      "country_code": "US",
      "asciiname": "Ohio"
    }
  },
  {
    "upper": "Ohio",
    "lower": "Akron Canton",
    "href": "http:\/\/akroncanton.backpage.com\/",
    "res": {
      "latitude": 41.08144,
      "admin1_code": "OH",
      "longitude": -81.51901,
      "country_code": "US",
      "asciiname": "Akron"
    }
  },
  {
    "upper": "Ohio",
    "lower": "Ashtabula",
    "href": "http:\/\/ashtabula.backpage.com\/",
    "res": {
      "latitude": 41.86505,
      "admin1_code": "OH",
      "longitude": -80.78981,
      "country_code": "US",
      "asciiname": "Ashtabula"
    }
  },
  {
    "upper": "Ohio",
    "lower": "Athens",
    "href": "http:\/\/athensoh.backpage.com\/",
    "res": {
      "latitude": 39.32924,
      "admin1_code": "OH",
      "longitude": -82.10126,
      "country_code": "US",
      "asciiname": "Athens"
    }
  },
  {
    "upper": "Ohio",
    "lower": "Chillicothe",
    "href": "http:\/\/chillicothe.backpage.com\/",
    "res": {
      "latitude": 39.33312,
      "admin1_code": "OH",
      "longitude": -82.9824,
      "country_code": "US",
      "asciiname": "Chillicothe"
    }
  },
  {
    "upper": "Ohio",
    "lower": "Cincinnati",
    "href": "http:\/\/cincinnati.backpage.com\/",
    "res": {
      "latitude": 39.162,
      "admin1_code": "OH",
      "longitude": -84.45689,
      "country_code": "US",
      "asciiname": "Cincinnati"
    }
  },
  {
    "upper": "Ohio",
    "lower": "Cleveland",
    "href": "http:\/\/cleveland.backpage.com\/",
    "res": {
      "latitude": 41.4995,
      "admin1_code": "OH",
      "longitude": -81.69541,
      "country_code": "US",
      "asciiname": "Cleveland"
    }
  },
  {
    "upper": "Ohio",
    "lower": "Columbus",
    "href": "http:\/\/columbus.backpage.com\/",
    "res": {
      "latitude": 39.96118,
      "admin1_code": "OH",
      "longitude": -82.99879,
      "country_code": "US",
      "asciiname": "Columbus"
    }
  },
  {
    "upper": "Ohio",
    "lower": "Dayton",
    "href": "http:\/\/dayton.backpage.com\/",
    "res": {
      "latitude": 39.75895,
      "admin1_code": "OH",
      "longitude": -84.19161,
      "country_code": "US",
      "asciiname": "Dayton"
    }
  },
  {
    "upper": "Ohio",
    "lower": "Huntington Ashland",
    "href": "http:\/\/huntingtonoh.backpage.com\/",
    "res": {
      "latitude": 40.86867,
      "admin1_code": "OH",
      "longitude": -82.31822,
      "country_code": "US",
      "asciiname": "Ashland"
    }
  },
  {
    "upper": "Ohio",
    "lower": "Lima Findlay",
    "href": "http:\/\/limaoh.backpage.com\/",
    "res": {
      "latitude": 41.04422,
      "admin1_code": "OH",
      "longitude": -83.64993,
      "country_code": "US",
      "asciiname": "Findlay"
    }
  },
  {
    "upper": "Ohio",
    "lower": "Mansfield",
    "href": "http:\/\/mansfield.backpage.com\/",
    "res": {
      "latitude": 40.75839,
      "admin1_code": "OH",
      "longitude": -82.51545,
      "country_code": "US",
      "asciiname": "Mansfield"
    }
  },
  {
    "upper": "Ohio",
    "lower": "Sandusky",
    "href": "http:\/\/sandusky.backpage.com\/",
    "res": {
      "latitude": 41.44894,
      "admin1_code": "OH",
      "longitude": -82.70796,
      "country_code": "US",
      "asciiname": "Sandusky"
    }
  },
  {
    "upper": "Ohio",
    "lower": "Toledo",
    "href": "http:\/\/toledo.backpage.com\/",
    "res": {
      "latitude": 41.66394,
      "admin1_code": "OH",
      "longitude": -83.55521,
      "country_code": "US",
      "asciiname": "Toledo"
    }
  },
  {
    "upper": "Ohio",
    "lower": "Tuscarawas County",
    "href": "http:\/\/tuscarawas.backpage.com\/",
    "res": {
      "latitude": 40.39479,
      "admin1_code": "OH",
      "longitude": -81.40706,
      "country_code": "US",
      "asciiname": "Tuscarawas"
    }
  },
  {
    "upper": "Ohio",
    "lower": "Youngstown",
    "href": "http:\/\/youngstown.backpage.com\/",
    "res": {
      "latitude": 41.09978,
      "admin1_code": "OH",
      "longitude": -80.64952,
      "country_code": "US",
      "asciiname": "Youngstown"
    }
  },
  {
    "upper": "Ohio",
    "lower": "Zanesville Cambridge",
    "href": "http:\/\/zanesville.backpage.com\/",
    "res": {
      "latitude": 39.94035,
      "admin1_code": "OH",
      "longitude": -82.01319,
      "country_code": "US",
      "asciiname": "Zanesville"
    }
  },
  {
    "upper": "Oklahoma",
    "lower": "Oklahoma",
    "href": "http:\/\/oklahoma.backpage.com\/",
    "res": {
      "latitude": 35.49209,
      "admin1_code": "OK",
      "longitude": -97.50328,
      "country_code": "US",
      "asciiname": "Oklahoma"
    }
  },
  {
    "upper": "Oklahoma",
    "lower": "Lawton",
    "href": "http:\/\/lawton.backpage.com\/",
    "res": {
      "latitude": 34.60869,
      "admin1_code": "OK",
      "longitude": -98.39033,
      "country_code": "US",
      "asciiname": "Lawton"
    }
  },
  {
    "upper": "Oklahoma",
    "lower": "Oklahoma City",
    "href": "http:\/\/oklahomacity.backpage.com\/",
    "res": {
      "latitude": 35.46756,
      "admin1_code": "OK",
      "longitude": -97.51643,
      "country_code": "US",
      "asciiname": "Oklahoma City"
    }
  },
  {
    "upper": "Oklahoma",
    "lower": "Stillwater",
    "href": "http:\/\/stillwater.backpage.com\/",
    "res": {
      "latitude": 36.11561,
      "admin1_code": "OK",
      "longitude": -97.05837,
      "country_code": "US",
      "asciiname": "Stillwater"
    }
  },
  {
    "upper": "Oklahoma",
    "lower": "Tulsa",
    "href": "http:\/\/tulsa.backpage.com\/",
    "res": {
      "latitude": 36.15398,
      "admin1_code": "OK",
      "longitude": -95.99278,
      "country_code": "US",
      "asciiname": "Tulsa"
    }
  },
  {
    "upper": "Oregon",
    "lower": "Oregon",
    "href": "http:\/\/oregon.backpage.com\/",
    "res": {
      "latitude": 44.00013,
      "admin1_code": "OR",
      "longitude": -120.50139,
      "country_code": "US",
      "asciiname": "Oregon"
    }
  },
  {
    "upper": "Oregon",
    "lower": "Bend",
    "href": "http:\/\/bend.backpage.com\/",
    "res": {
      "latitude": 44.05817,
      "admin1_code": "OR",
      "longitude": -121.31531,
      "country_code": "US",
      "asciiname": "Bend"
    }
  },
  {
    "upper": "Oregon",
    "lower": "Corvallis",
    "href": "http:\/\/corvallis.backpage.com\/",
    "res": {
      "latitude": 44.56457,
      "admin1_code": "OR",
      "longitude": -123.26204,
      "country_code": "US",
      "asciiname": "Corvallis"
    }
  },
  {
    "upper": "Oregon",
    "lower": "East Oregon",
    "href": "http:\/\/eastoregon.backpage.com\/",
    "res": {
      "latitude": 45.35734,
      "admin1_code": "OR",
      "longitude": -122.60676,
      "country_code": "US",
      "asciiname": "Oregon City"
    }
  },
  {
    "upper": "Oregon",
    "lower": "Eugene",
    "href": "http:\/\/eugene.backpage.com\/",
    "res": {
      "latitude": 44.05207,
      "admin1_code": "OR",
      "longitude": -123.08675,
      "country_code": "US",
      "asciiname": "Eugene"
    }
  },
  {
    "upper": "Oregon",
    "lower": "Klamath Falls",
    "href": "http:\/\/klamath.backpage.com\/",
    "res": {
      "latitude": 42.22487,
      "admin1_code": "OR",
      "longitude": -121.78167,
      "country_code": "US",
      "asciiname": "Klamath Falls"
    }
  },
  {
    "upper": "Oregon",
    "lower": "Medford",
    "href": "http:\/\/medford.backpage.com\/",
    "res": {
      "latitude": 42.32652,
      "admin1_code": "OR",
      "longitude": -122.87559,
      "country_code": "US",
      "asciiname": "Medford"
    }
  },
  {
    "upper": "Oregon",
    "lower": "Oregon Coast",
    "href": "http:\/\/oregoncoast.backpage.com\/",
    "res": {
      "latitude": 45.35734,
      "admin1_code": "OR",
      "longitude": -122.60676,
      "country_code": "US",
      "asciiname": "Oregon City"
    }
  },
  {
    "upper": "Oregon",
    "lower": "Portland",
    "href": "http:\/\/portland.backpage.com\/",
    "res": {
      "latitude": 45.52345,
      "admin1_code": "OR",
      "longitude": -122.67621,
      "country_code": "US",
      "asciiname": "Portland"
    }
  },
  {
    "upper": "Oregon",
    "lower": "Roseburg",
    "href": "http:\/\/roseburg.backpage.com\/",
    "res": {
      "latitude": 43.2165,
      "admin1_code": "OR",
      "longitude": -123.34174,
      "country_code": "US",
      "asciiname": "Roseburg"
    }
  },
  {
    "upper": "Oregon",
    "lower": "Salem",
    "href": "http:\/\/salem.backpage.com\/",
    "res": {
      "latitude": 44.9429,
      "admin1_code": "OR",
      "longitude": -123.0351,
      "country_code": "US",
      "asciiname": "Salem"
    }
  },
  {
    "upper": "Pennsylvania",
    "lower": "Pennsylvania",
    "href": "http:\/\/pennsylvania.backpage.com\/",
    "res": {
      "latitude": 40.27245,
      "admin1_code": "PA",
      "longitude": -76.90567,
      "country_code": "US",
      "asciiname": "Pennsylvania"
    }
  },
  {
    "upper": "Pennsylvania",
    "lower": "Allentown",
    "href": "http:\/\/allentown.backpage.com\/",
    "res": {
      "latitude": 40.42757,
      "admin1_code": "PA",
      "longitude": -79.99394,
      "country_code": "US",
      "asciiname": "Allentown"
    }
  },
  {
    "upper": "Pennsylvania",
    "lower": "Altoona",
    "href": "http:\/\/altoona.backpage.com\/",
    "res": {
      "latitude": 40.51868,
      "admin1_code": "PA",
      "longitude": -78.39474,
      "country_code": "US",
      "asciiname": "Altoona"
    }
  },
  {
    "upper": "Pennsylvania",
    "lower": "Chambersburg",
    "href": "http:\/\/chambersburg.backpage.com\/",
    "res": {
      "latitude": 39.93759,
      "admin1_code": "PA",
      "longitude": -77.6611,
      "country_code": "US",
      "asciiname": "Chambersburg"
    }
  },
  {
    "upper": "Pennsylvania",
    "lower": "Erie",
    "href": "http:\/\/erie.backpage.com\/",
    "res": {
      "latitude": 42.12922,
      "admin1_code": "PA",
      "longitude": -80.08506,
      "country_code": "US",
      "asciiname": "Erie"
    }
  },
  {
    "upper": "Pennsylvania",
    "lower": "Harrisburg",
    "href": "http:\/\/harrisburg.backpage.com\/",
    "res": {
      "latitude": 40.2737,
      "admin1_code": "PA",
      "longitude": -76.88442,
      "country_code": "US",
      "asciiname": "Harrisburg"
    }
  },
  {
    "upper": "Pennsylvania",
    "lower": "Lancaster",
    "href": "http:\/\/lancaster.backpage.com\/",
    "res": {
      "latitude": 40.03788,
      "admin1_code": "PA",
      "longitude": -76.30551,
      "country_code": "US",
      "asciiname": "Lancaster"
    }
  },
  {
    "upper": "Pennsylvania",
    "lower": "Meadville",
    "href": "http:\/\/meadville.backpage.com\/",
    "res": {
      "latitude": 40.06927,
      "admin1_code": "PA",
      "longitude": -75.9955,
      "country_code": "US",
      "asciiname": "Meadville"
    }
  },
  {
    "upper": "Pennsylvania",
    "lower": "Penn State",
    "href": "http:\/\/pennstate.backpage.com\/",
    "res": {
      "latitude": 40.32896,
      "admin1_code": "PA",
      "longitude": -79.64115,
      "country_code": "US",
      "asciiname": "Penn"
    }
  },
  {
    "upper": "Pennsylvania",
    "lower": "Philadelphia",
    "href": "http:\/\/philadelphia.backpage.com\/",
    "res": {
      "latitude": 39.95234,
      "admin1_code": "PA",
      "longitude": -75.16379,
      "country_code": "US",
      "asciiname": "Philadelphia"
    }
  },
  {
    "upper": "Pennsylvania",
    "lower": "Pittsburgh",
    "href": "http:\/\/pittsburgh.backpage.com\/",
    "res": {
      "latitude": 40.44062,
      "admin1_code": "PA",
      "longitude": -79.99589,
      "country_code": "US",
      "asciiname": "Pittsburgh"
    }
  },
  {
    "upper": "Pennsylvania",
    "lower": "Poconos",
    "href": "http:\/\/poconos.backpage.com\/",
    "res": null
  },
  {
    "upper": "Pennsylvania",
    "lower": "Reading",
    "href": "http:\/\/reading.backpage.com\/",
    "res": {
      "latitude": 40.33565,
      "admin1_code": "PA",
      "longitude": -75.92687,
      "country_code": "US",
      "asciiname": "Reading"
    }
  },
  {
    "upper": "Pennsylvania",
    "lower": "Scranton",
    "href": "http:\/\/scranton.backpage.com\/",
    "res": {
      "latitude": 41.40897,
      "admin1_code": "PA",
      "longitude": -75.66241,
      "country_code": "US",
      "asciiname": "Scranton"
    }
  },
  {
    "upper": "Pennsylvania",
    "lower": "Williamsport",
    "href": "http:\/\/williamsport.backpage.com\/",
    "res": {
      "latitude": 41.24119,
      "admin1_code": "PA",
      "longitude": -77.00108,
      "country_code": "US",
      "asciiname": "Williamsport"
    }
  },
  {
    "upper": "Pennsylvania",
    "lower": "York",
    "href": "http:\/\/york.backpage.com\/",
    "res": {
      "latitude": 39.9626,
      "admin1_code": "PA",
      "longitude": -76.72774,
      "country_code": "US",
      "asciiname": "York"
    }
  },
  {
    "upper": "Rhode Island ",
    "lower": "Rhode Island",
    "href": "http:\/\/providence.backpage.com\/",
    "res": {
      "latitude": 41.75038,
      "admin1_code": "RI",
      "longitude": -71.49978,
      "country_code": "US",
      "asciiname": "Rhode Island"
    }
  },
  {
    "upper": "South Carolina",
    "lower": "South Carolina",
    "href": "http:\/\/southcarolina.backpage.com\/",
    "res": {
      "latitude": 34.00043,
      "admin1_code": "SC",
      "longitude": -81.00009,
      "country_code": "US",
      "asciiname": "South Carolina"
    }
  },
  {
    "upper": "South Carolina",
    "lower": "Charleston",
    "href": "http:\/\/charleston.backpage.com\/",
    "res": {
      "latitude": 32.77657,
      "admin1_code": "SC",
      "longitude": -79.93092,
      "country_code": "US",
      "asciiname": "Charleston"
    }
  },
  {
    "upper": "South Carolina",
    "lower": "Columbia",
    "href": "http:\/\/columbia.backpage.com\/",
    "res": {
      "latitude": 34.00071,
      "admin1_code": "SC",
      "longitude": -81.03481,
      "country_code": "US",
      "asciiname": "Columbia"
    }
  },
  {
    "upper": "South Carolina",
    "lower": "Florence",
    "href": "http:\/\/florence.backpage.com\/",
    "res": {
      "latitude": 34.19543,
      "admin1_code": "SC",
      "longitude": -79.76256,
      "country_code": "US",
      "asciiname": "Florence"
    }
  },
  {
    "upper": "South Carolina",
    "lower": "Greenville",
    "href": "http:\/\/greenville.backpage.com\/",
    "res": {
      "latitude": 34.85262,
      "admin1_code": "SC",
      "longitude": -82.39401,
      "country_code": "US",
      "asciiname": "Greenville"
    }
  },
  {
    "upper": "South Carolina",
    "lower": "Hilton Head",
    "href": "http:\/\/hiltonhead.backpage.com\/",
    "res": {
      "latitude": 32.21632,
      "admin1_code": "SC",
      "longitude": -80.75261,
      "country_code": "US",
      "asciiname": "Hilton Head Island"
    }
  },
  {
    "upper": "South Carolina",
    "lower": "Myrtle Beach",
    "href": "http:\/\/myrtlebeach.backpage.com\/",
    "res": {
      "latitude": 33.68906,
      "admin1_code": "SC",
      "longitude": -78.88669,
      "country_code": "US",
      "asciiname": "Myrtle Beach"
    }
  },
  {
    "upper": "South Dakota",
    "lower": "South Dakota",
    "href": "http:\/\/southdakota.backpage.com\/",
    "res": {
      "latitude": 44.50026,
      "admin1_code": "SD",
      "longitude": -100.25069,
      "country_code": "US",
      "asciiname": "South Dakota"
    }
  },
  {
    "upper": "South Dakota",
    "lower": "Aberdeen",
    "href": "http:\/\/aberdeen-sd.backpage.com\/",
    "res": {
      "latitude": 45.4647,
      "admin1_code": "SD",
      "longitude": -98.48648,
      "country_code": "US",
      "asciiname": "Aberdeen"
    }
  },
  {
    "upper": "South Dakota",
    "lower": "Pierre",
    "href": "http:\/\/pierre.backpage.com\/",
    "res": {
      "latitude": 44.36832,
      "admin1_code": "SD",
      "longitude": -100.35097,
      "country_code": "US",
      "asciiname": "Pierre"
    }
  },
  {
    "upper": "South Dakota",
    "lower": "Rapid City",
    "href": "http:\/\/rapidcity.backpage.com\/",
    "res": {
      "latitude": 44.08054,
      "admin1_code": "SD",
      "longitude": -103.23101,
      "country_code": "US",
      "asciiname": "Rapid City"
    }
  },
  {
    "upper": "South Dakota",
    "lower": "Sioux Falls",
    "href": "http:\/\/siouxfalls.backpage.com\/",
    "res": {
      "latitude": 43.54997,
      "admin1_code": "SD",
      "longitude": -96.70033,
      "country_code": "US",
      "asciiname": "Sioux Falls"
    }
  },